Name;Longitude;Latitude
Abla;-2.780104;37.14114
Abrucena;-2.797098;37.13305
Adra;-3.022522;36.74807
Albánchez;-2.181163;37.2871
Alboloduy;-2.62175;37.03319
Albox;-2.147483;37.38979
Alcolea;-2.961038;36.97449
Alcóntar;-2.596944;37.33585
Alcudia de Monteagud;-2.266174;37.23598
Alhabia;-2.587667;36.9893
Alhama de Almería;-2.570075;36.95742
Alicún;-2.601994;36.9663
Almería;-2.467922;36.84016
Almócita;-2.790071;37.00236
Alsodux;-2.594579;37.002
Antas;-1.917543;37.24516
Arboleas;-2.074867;37.35025
Armuña de Almanzora;-2.411396;37.34969
Bacares;-2.454761;37.26083
Bayárcal;-2.996469;37.03116
Bayarque;-2.43566;37.33091
Bédar;-1.981898;37.18964
Beires;-2.790928;37.012
Benahadux;-2.455683;36.92587
Benitagla;-2.239107;37.23124
Benizalón;-2.241685;37.21175
Bentarique;-2.61942;36.98652
Berja;-2.949425;36.84644
Canjáyar;-2.739681;37.00973
Cantoria;-2.193626;37.35259
Carboneras;-1.895012;36.99659
Castro de Filabres;-2.439524;37.18464
Chercos;-2.257897;37.26633
Chirivel;-2.264839;37.5956
Cóbdar;-2.210223;37.26199
Cuevas del Almanzora;-1.881476;37.29709
Dalías;-2.870697;36.82121
Ejido (El);-2.812738;36.77506
Enix;-2.602107;36.87704
Felix;-2.657921;36.86892
Fiñana;-2.840678;37.17101
Fines;-2.262964;37.35888
Fondón;-2.858356;36.97942
Gádor;-2.492936;36.95393
Gallardos (Los);-1.940099;37.16948
Garrucha;-1.821901;37.17925
Gérgal;-2.538305;37.1207
Huécija;-2.611436;36.96788
Huércal-Overa;-1.943684;37.39063
Huércal de Almería;-2.435978;36.88415
Illar;-2.639302;36.98504
Instinción;-2.659945;36.99316
Laroya;-2.329601;37.29667
Láujar de Andarax;-2.88922;36.99384
Líjar;-2.219928;37.29527
Lubrín;-2.067055;37.21585
Lucainena de las Torres;-2.200706;37.04179
Lúcar;-2.427074;37.39965
Macael;-2.304892;37.33229
María;-2.165795;37.7111
Mojácar;-1.851328;37.13995
Mojonera (La);-2.688159;36.75254
Nacimiento;-2.64774;37.10497
Níjar;-2.20651;36.96576
Ohanes;-2.745168;37.03723
Olula de Castro;-2.476297;37.17611
Olula del Río;-2.298121;37.35212
Oria;-2.295018;37.48503
Padules;-2.773482;36.99884
Partaloa;-2.226434;37.40604
Paterna del Río;-2.953087;37.02088
Pechina;-2.440625;36.91667
Pulpí;-1.745502;37.41183
Purchena;-2.36155;37.34855
Rágol;-2.680989;36.99564
Rioja;-2.462424;36.94406
Roquetas de Mar;-2.614935;36.76427
Santa Cruz de Marchena;-2.603768;37.0172
Santa Fe de Mondújar;-2.530279;36.97506
Senés;-2.347544;37.20457
Serón;-2.508077;37.34361
Sierro;-2.398526;37.32348
Somontín;-2.389127;37.39139
Sorbas;-2.126351;37.09841
Suflí;-2.389523;37.3382
Tabernas;-2.392681;37.04945
Taberno;-2.076205;37.46729
Tahal;-2.28497;37.22803
Terque;-2.597233;36.98359
Tíjola;-2.439434;37.34551
Tres Villas (Las);-2.7;37.13334
Turre;-1.894899;37.15225
Turrillas;-2.264096;37.03019
Uleila del Campo;-2.203801;37.18548
Urrácal;-2.36507;37.39732
Velefique;-2.403687;37.19375
Vélez-Blanco;-2.095682;37.69095
Vélez-Rubio;-2.074232;37.64802
Vera;-1.868238;37.24686
Viator;-2.426541;36.88963
Vícar;-2.642515;36.83145
Zurgena;-2.039607;37.34265
Alcalá de los Gazules;-5.723718;36.46045
Alcalá del Valle;-5.173237;36.90491
Algar;-5.657418;36.65533
Algeciras;-5.447698;36.12978
Algodonales;-5.405773;36.88092
Arcos de la Frontera;-5.812395;36.75078
Barbate;-5.918903;36.19282
Barrios (Los);-5.492747;36.18539
Benalup-Casas Viejas;-5.8094;36.34284
Benaocaz;-5.421263;36.69952
Bornos;-5.743362;36.81459
Bosque (El);-5.506988;36.75752
Cádiz;-6.292657;36.52969
Castellar de la Frontera;-5.419937;36.28621
Chiclana de la Frontera;-6.149412;36.41915
Chipiona;-6.43587;36.7408
Conil de la Frontera;-6.088436;36.27675
Espera;-5.806213;36.87319
Gastor (El);-5.323623;36.85509
Grazalema;-5.366071;36.75837
Jerez de la Frontera;-6.137173;36.68656
Jimena de la Frontera;-5.453479;36.43404
Línea de la Concepción (La);-5.348256;36.16118
Medina-Sidonia;-5.927894;36.46768
Olvera;-5.267688;36.93525
Paterna de Rivera;-5.866053;36.52333
Prado del Rey;-5.555545;36.78968
Puerto de Santa María (El);-6.227526;36.59695
Puerto Real;-6.191895;36.52912
Puerto Serrano;-5.545621;36.92159
Rota;-6.358202;36.61699
San Fernando;-6.196626;36.46572
San José del Valle;-5.798952;36.60554
San Roque;-5.384572;36.20975
Sanlúcar de Barrameda;-6.354198;36.77882
Setenil de las Bodegas;-5.181413;36.86406
Tarifa;-5.602954;36.01271
Torre Alháquime;-5.234736;36.91553
Trebujena;-6.176695;36.86951
Ubrique;-5.446557;36.67771
Vejer de la Frontera;-5.962856;36.25331
Villaluenga del Rosario;-5.388137;36.69587
Villamartín;-5.641834;36.86132
Zahara;-5.390547;36.84053
Adamuz;-4.524873;38.02736
Aguilar de la Frontera;-4.656057;37.51503
Alcaracejos;-4.967684;38.38823
Almedinilla;-4.091205;37.439
Almodóvar del Río;-5.019958;37.80959
Añora;-4.897461;38.41099
Baena;-4.326089;37.61441
Belalcázar;-5.167119;38.57843
Belmez;-5.208753;38.27234
Benamejí;-4.540418;37.26732
Blázquez (Los);-5.438988;38.4065
Bujalance;-4.383588;37.89657
Cabra;-4.425931;37.47437
Cañete de las Torres;-4.318819;37.86741
Carcabuey;-4.273436;37.44359
Cardeña;-4.32373;38.27047
Carlota (La);-4.932553;37.67361
Carpio (El);-4.498775;37.94054
Castro del Río;-4.481579;37.68864
Conquista;-4.500968;38.40844
Córdoba;-4.779152;37.88473
Doña Mencía;-4.357603;37.55457
Dos Torres;-4.894932;38.44524
Encinas Reales;-4.489717;37.27488
Espejo;-4.552363;37.68211
Espiel;-5.018202;38.18865
Fernán-Núñez;-4.723994;37.67226
Fuente-Tójar;-4.148019;37.51163
Fuente la Lancha;-5.048906;38.42257
Fuente Obejuna;-5.419834;38.26675
Fuente Palmera;-5.103904;37.70319
Granjuela (La);-5.351436;38.3711
Guadalcázar;-4.94463;37.75755
Guijo (El);-4.782716;38.49629
Hinojosa del Duque;-5.148333;38.50099
Hornachuelos;-5.242984;37.83084
Iznájar;-4.308423;37.25726
Lucena;-4.485598;37.40873
Luque;-4.276523;37.55932
Montalbán de Córdoba;-4.749699;37.58292
Montemayor;-4.698889;37.64862
Montilla;-4.638313;37.58963
Montoro;-4.381874;38.02617
Monturque;-4.581713;37.47332
Moriles;-4.608767;37.43526
Nueva Carteya;-4.467291;37.58566
Obejo;-4.800506;38.13433
Palenciana;-4.583651;37.2492
Palma del Río;-5.283767;37.70163
Pedro Abad;-4.457226;37.96708
Pedroche;-4.763438;38.42873
Peñarroya-Pueblonuevo;-5.272851;38.30304
Posadas;-5.107038;37.80041
Pozoblanco;-4.848376;38.37742
Priego de Córdoba;-4.194839;37.4389
Puente Genil;-4.770465;37.39051
Rambla (La);-4.741319;37.60816
Rute;-4.371301;37.32587
San Sebastián de los Ballesteros;-4.824157;37.65493
Santa Eufemia;-4.902765;38.59544
Santaella;-4.845094;37.56627
Torrecampo;-4.679456;38.4751
Valenzuela;-4.219841;37.77508
Valsequillo;-5.35168;38.40498
Victoria (La);-4.784959;37.88327
Villa del Río;-4.290878;37.98227
Villafranca de Córdoba;-4.545728;37.96193
Villaharta;-4.903052;38.13951
Villanueva de Córdoba;-4.628341;38.32279
Villanueva del Duque;-5.000132;38.39297
Villanueva del Rey;-5.151443;38.19965
Villaralto;-4.984371;38.45571
Villaviciosa de Córdoba;-5.014214;38.07598
Viso (El);-4.955392;38.4827
Zuheros;-4.316415;37.54314
Agrón;-3.829724;37.03058
Alamedilla;-3.244309;37.58174
Albolote;-3.657415;37.23085
Albondón;-3.210813;36.82729
Albuñán;-3.133893;37.22719
Albuñol;-3.203485;36.79125
Albuñuelas;-3.631472;36.9282
Aldeire;-3.072488;37.16264
Alfacar;-3.570654;37.23657
Algarinejo;-4.158846;37.32492
Alhama de Granada;-3.988389;37.00252
Alhendín;-3.645584;37.1076
Alicún de Ortega;-3.137986;37.60968
Almegíjar;-3.299801;36.90245
Almuñécar;-3.690736;36.73454
Alpujarra de la Sierra;-3.157129;36.9815
Alquife;-3.116288;37.17983
Arenas del Rey;-3.894323;36.95771
Armilla;-3.617981;37.1401
Atarfe;-3.687416;37.2229
Baza;-2.774473;37.49065
Beas de Granada;-3.481737;37.21916
Beas de Guadix;-3.205976;37.2794
Benalúa;-3.16904;37.3503
Benalúa de las Villas;-3.683473;37.42758
Benamaurel;-2.699214;37.60913
Bérchules;-3.190379;36.97672
Bubión;-3.356741;36.94883
Busquístar;-3.294846;36.93771
Cacín;-3.91689;37.05995
Cádiar;-3.180546;36.94673
Cájar;-3.570618;37.13422
Calahorra (La);-3.064513;37.18137
Calicasas;-3.6182;37.27329
Campotéjar;-3.616497;37.48131
Cáñar;-3.428235;36.92661
Caniles;-2.722401;37.43626
Capileira;-3.358654;36.96122
Carataunas;-3.408202;36.92287
Cástaras;-3.253733;36.93169
Castilléjar;-2.642967;37.7147
Castril;-2.779088;37.79573
Cenes de la Vega;-3.537524;37.15931
Chauchina;-3.77254;37.20142
Chimeneas;-3.823198;37.13137
Churriana de la Vega;-3.64595;37.14777
Cijuela;-3.810801;37.19989
Cogollos de Guadix;-3.161336;37.22443
Cogollos de la Vega;-3.572908;37.27486
Colomera;-3.71382;37.37206
Cortes de Baza;-2.769917;37.65493
Cortes y Graena;-3.218777;37.30363
Cuevas del Campo;-2.931033;37.60847
Cúllar;-2.576282;37.58368
Cúllar Vega;-3.670436;37.15327
Darro;-3.292531;37.35002
Dehesas de Guadix;-3.102278;37.58868
Deifontes;-3.594484;37.32524
Diezma;-3.331664;37.32085
Dílar;-3.601624;37.07499
Dólar;-2.989589;37.18004
Dúdar;-3.484442;37.18567
Dúrcal;-3.56616;36.98793
Escúzar;-3.761499;37.06251
Ferreira;-3.036083;37.17229
Fonelas;-3.173344;37.41344
Freila;-2.906795;37.52869
Fuente Vaqueros;-3.783053;37.21957
Gabias (Las);-3.698333;37.135
Galera;-2.551193;37.74289
Gobernador;-3.320455;37.47737
Gójar;-3.606203;37.10443
Gor;-2.969444;37.36952
Gorafe;-3.044275;37.47902
Granada;-3.597929;37.17649
Guadahortuna;-3.400713;37.55655
Guadix;-3.134583;37.3004
Guajares (Los);-3.61165;36.84568
Gualchos;-3.389869;36.74357
Güejar Sierra;-3.438619;37.15992
Güevéjar;-3.597678;37.25698
Huélago;-3.260146;37.4198
Huéneja;-2.948596;37.17693
Huéscar;-2.539663;37.80949
Huétor de Santillán;-3.517399;37.21823
Huétor Tájar;-4.047139;37.19463
Huétor Vega;-3.575904;37.15238
Illora;-3.879782;37.28843
Itrabo;-3.638711;36.79948
Iznalloz;-3.527549;37.3927
Jayena;-3.822807;36.94883
Jerez del Marquesado;-3.159872;37.18385
Jete;-3.668151;36.79732
Jun;-3.59443;37.22064
Juviles;-3.225788;36.94825
Láchar;-3.834064;37.19508
Lanjarón;-3.480488;36.91806
Lanteira;-3.138551;37.1689
Lecrín;-3.550382;36.9477
Lentegí;-3.674449;36.8343
Lobras;-3.212306;36.92786
Loja;-4.151471;37.16884
Lugros;-3.240909;37.23069
Lújar;-3.401651;36.78755
Malahá (La);-3.722502;37.10146
Maracena;-3.636805;37.20568
Marchal;-3.202323;37.2962
Moclín;-3.786422;37.34158
Molvízar;-3.607518;36.78689
Monachil;-3.539469;37.13209
Montefrío;-4.011364;37.32097
Montejícar;-3.5047;37.57196
Montillana;-3.672423;37.50127
Moraleda de Zafayona;-3.965147;37.16977
Morelábor;-3.310278;37.43111
Motril;-3.516718;36.74467
Murtas;-3.108971;36.88737
Nevada;-3.016667;37
Nigüelas;-3.539319;36.97741
Nívar;-3.577918;37.25794
Ogíjares;-3.607937;37.11991
Orce;-2.479451;37.72141
Órgiva;-3.42399;36.90224
Otívar;-3.681497;36.81491
Otura;-3.635073;37.09431
Padul;-3.626719;37.02432
Pampaneira;-3.361339;36.94004
Pedro Martínez;-3.230659;37.50168
Peligros;-3.629415;37.23122
Peza (La);-3.284761;37.2756
Píñar;-3.439418;37.44337
Pinar (El);-3.439418;37.44337
Pinos Genil;-3.502635;37.16339
Pinos Puente;-3.750995;37.25146
Polícar;-3.232102;37.25764
Polopos;-3.297135;36.79553
Pórtugos;-3.310386;36.94241
Puebla de Don Fadrique;-2.43508;37.9579
Pulianas;-3.608163;37.22264
Purullena;-3.190274;37.31759
Quéntar;-3.468192;37.19201
Rubite;-3.348044;36.80884
Salar;-4.067732;37.14882
Salobreña;-3.587108;36.74626
Santa Cruz del Comercio;-3.976717;37.06024
Santa Fe;-3.719076;37.18936
Soportújar;-3.405133;36.92839
Sorvilán;-3.267524;36.79442
Taha (La);-3.316667;36.93333
Torre-Cardela;-3.356015;37.50457
Torvizcón;-3.298552;36.87788
Trevélez;-3.266871;37.00245
Turón;-3.057771;36.86357
Ugíjar;-3.054754;36.96075
Valle (El);-3.008889;37.28611
Valle del Zalabí;-3.008889;37.28611
Válor;-3.083123;36.99589
Vegas del Genil;-3.7;37.16667
Vélez de Benaudalla;-3.516209;36.83195
Ventas de Huelma;-3.822133;37.06853
Villamena;-3.588935;36.99035
Villanueva de las Torres;-3.090193;37.55663
Villanueva Mesía;-4.011248;37.2142
Víznar;-3.553835;37.23108
Zafarraya;-4.144421;36.97551
Zagra;-4.168132;37.25303
Zubia (La);-3.584668;37.12061
Zújar;-2.842817;37.54015
Alájar;-6.666078;37.87439
Aljaraque;-7.021585;37.27111
Almendro (El);-7.270019;37.50693
Almonaster la Real;-6.787901;37.87181
Almonte;-6.51724;37.26254
Alosno;-7.115428;37.54936
Aracena;-6.561207;37.89417
Aroche;-6.954265;37.94426
Arroyomolinos de León;-6.421104;38.02604
Ayamonte;-7.409819;37.21466
Beas;-6.792988;37.42592
Berrocal;-6.883333;38
Bollullos Par del Condado;-6.535758;37.33615
Bonares;-6.680697;37.3219
Cabezas Rubias;-7.087451;37.7265
Cala;-6.31649;37.97217
Calañas;-6.878683;37.65482
Campillo (El);-6.630814;37.69332
Campofrío;-6.573099;37.76776
Cañaveral de León;-6.527808;38.01454
Cartaya;-7.154979;37.28314
Castaño del Robledo;-6.703943;37.8951
Cerro de Andévalo (El);-6.938734;37.73519
Chucena;-6.393946;37.36157
Corteconcepción;-6.505878;37.89585
Cortegana;-6.820616;37.90937
Cortelazor;-6.624768;37.93554
Cumbres de Enmedio;-6.692877;38.07224
Cumbres de San Bartolomé;-6.743336;38.07691
Cumbres Mayores;-6.647074;38.0637
Encinasola;-6.872141;38.13522
Escacena del Campo;-6.389561;37.41033
Fuenteheridos;-6.660661;37.90327
Galaroza;-6.709221;37.92757
Gibraleón;-6.970141;37.37495
Granada de Río-Tinto (La);-6.91823;37.23156
Granado (El);-6.926992;37.26469
Higuera de la Sierra;-6.447579;37.83819
Hinojales;-6.589147;38.00843
Hinojos;-6.376253;37.29273
Huelva;-6.949555;37.2571
Isla Cristina;-7.325246;37.19943
Jabugo;-6.729078;37.91671
Lepe;-7.203348;37.25432
Linares de la Sierra;-6.621002;37.88009
Lucena del Puerto;-6.730086;37.30394
Manzanilla;-6.429422;37.38773
Marines (Los);-6.62332;37.90303
Minas de Riotinto;-6.591848;37.69391
Moguer;-6.836591;37.27469
Nava (La);-6.745746;37.96342
Nerva;-6.550632;37.69511
Niebla;-6.6792;37.3601
Palma del Condado (La);-6.5534;37.38784
Palos de la Frontera;-6.893426;37.2282
Paterna del Campo;-6.401431;37.42096
Paymogo;-7.345994;37.74063
Puebla de Guzmán;-7.245831;37.61144
Puerto Moral;-6.47877;37.89208
Punta Umbría;-6.967148;37.18248
Rociana del Condado;-6.598672;37.30781
Rosal de la Frontera;-7.220527;37.9678
San Bartolomé de la Torre;-7.106683;37.44596
San Juan del Puerto;-6.840784;37.31416
San Silvestre de Guzmán;-7.350305;37.3884
Sanlúcar de Guadiana;-7.467861;37.47318
Santa Ana la Real;-6.724445;37.86396
Santa Bárbara de Casa;-7.188633;37.79655
Santa Olalla del Cala;-6.229617;37.90651
Trigueros;-6.833752;37.38319
Valdelarco;-6.683222;37.95044
Valverde del Camino;-6.753376;37.57339
Villablanca;-7.341905;37.30373
Villalba del Alcor;-6.476595;37.39729
Villanueva de las Cruces;-7.024521;37.62762
Villanueva de los Castillejos;-7.272443;37.50046
Villarrasa;-6.606914;37.38945
Zalamea la Real;-6.660578;37.67891
Zufre;-6.338613;37.83384
Albanchez de Mágina;-3.468285;37.79165
Alcalá la Real;-3.925078;37.46358
Alcaudete;-4.086735;37.59106
Aldeaquemada;-3.371774;38.41182
Andújar;-4.054391;38.03675
Arjona;-4.054891;37.93648
Arjonilla;-4.107027;37.97355
Arquillos;-3.430886;38.18201
Arroyo del Ojanco;-2.894979;38.32092
Baeza;-3.469237;37.99343
Bailén;-3.774859;38.09588
Baños de la Encina;-3.774258;38.17133
Beas de Segura;-2.889883;38.25238
Bedmar y Garcíez;-3.411761;37.82271
Begíjar;-3.53483;37.98452
Bélmez de la Moraleda;-3.38222;37.7239
Benatae;-2.650866;38.35257
Cabra del Santo Cristo;-3.286108;37.70535
Cambil;-3.565627;37.67691
Campillo de Arenas;-3.635789;37.55593
Canena;-3.482172;38.04868
Carboneros;-3.631522;38.22952
Cárcheles;-3.635799;37.6533
Carolina (La);-3.615412;38.27468
Castellar;-3.131925;38.25621
Castillo de Locubín;-3.943678;37.52826
Cazalilla;-3.882231;37.9846
Cazorla;-3.002167;37.91055
Chiclana de Segura;-3.042188;38.31147
Chilluévar;-3.031099;38.00106
Escañuela;-4.033281;37.87872
Espelúy;-3.861802;38.03308
Frailes;-3.838214;37.48515
Fuensanta de Martos;-3.906;37.64784
Fuerte del Rey;-3.884589;37.87396
Génave;-2.732766;38.43014
Guardia de Jaén (La);-3.692717;37.74164
Guarromán;-3.686501;38.18151
Higuera de Calatrava;-4.154945;37.7969
Hinojares;-2.999204;37.71555
Hornos;-2.720247;38.21679
Huelma;-3.455428;37.64524
Huesa;-3.078167;37.76411
Ibros;-3.502375;38.02261
Iruela (La);-2.993985;37.92038
Iznatoraf;-3.032914;38.15744
Jabalquinto;-3.724704;38.01932
Jaén;-3.789518;37.76574
Jamilena;-3.912299;37.74709
Jimena;-3.476529;37.84158
Jódar;-3.352545;37.84398
Lahiguera;-3.989164;37.97049
Larva;-3.20015;37.75892
Linares;-3.635844;38.09362
Lopera;-4.214694;37.94367
Lupión;-3.546936;37.99656
Mancha Real;-3.612393;37.78617
Marmolejo;-4.170608;38.04433
Martos;-3.966259;37.72278
Mengíbar;-3.808806;37.96833
Montizón;-3.103404;38.34243
Navas de San Juan;-3.315369;38.18464
Noalejo;-3.653675;37.52939
Orcera;-2.664912;38.31738
Peal de Becerro;-3.121655;37.91332
Pegalajar;-3.651098;37.73797
Porcuna;-4.184721;37.87086
Pozo Alcón;-2.93436;37.70512
Puente de Génave;-2.804408;38.35323
Puerta de Segura (La);-2.737147;38.34861
Quesada;-3.067591;37.8451
Rus;-3.462054;38.04807
Sabiote;-3.306595;38.06915
Santa Elena;-3.539236;38.33911
Santiago-Pontones;-2.55;38.1
Santiago de Calatrava;-4.169107;37.75299
Santisteban del Puerto;-3.206428;38.24746
Santo Tomé;-3.101844;38.02818
Segura de la Sierra;-2.651513;38.29776
Siles;-2.58131;38.38734
Sorihuela del Guadalimar;-3.054152;38.23954
Torre del Campo;-3.895521;37.77657
Torreblascopedro;-3.638916;37.99618
Torredonjimeno;-3.959263;37.76543
Torreperogil;-3.287597;38.0345
Torres;-3.510031;37.78608
Torres de Albánchez;-2.677051;38.41451
Úbeda;-3.368519;38.00809
Valdepeñas de Jaén;-3.819645;37.59034
Vilches;-3.507662;38.20467
Villacarrillo;-3.087194;38.11541
Villanueva de la Reina;-3.919512;38.00499
Villanueva del Arzobispo;-3.010099;38.16934
Villardompardo;-4.001286;37.83969
Villares (Los);-3.81857;37.68932
Villarrodrigo;-2.636272;38.48793
Villatorres;-3.692753;37.9313
Alameda;-4.658073;37.20783
Alcaucín;-4.114147;36.90263
Alfarnate;-4.260656;36.99511
Alfarnatejo;-4.272528;36.97935
Algarrobo;-4.039314;36.77216
Algatocín;-5.276559;36.57289
Alhaurín de la Torre;-4.552967;36.66836
Alhaurín el Grande;-4.691447;36.64186
Almáchar;-4.217409;36.80859
Almargen;-5.021193;37.00392
Almogía;-4.540719;36.82528
Álora;-4.706715;36.82264
Alozaina;-4.85646;36.72768
Alpandeire;-5.202244;36.63317
Antequera;-4.562885;37.01938
Árchez;-3.990186;36.83739
Archidona;-4.387545;37.09481
Ardales;-4.846642;36.87798
Arenas;-4.043716;36.81469
Arriate;-5.140064;36.79936
Atajate;-5.245177;36.63999
Benadalid;-5.268939;36.60577
Benahavís;-5.046305;36.52446
Benalauría;-5.261163;36.59402
Benalmádena;-4.573368;36.59523
Benamargosa;-4.19239;36.83208
Benamocarra;-4.159968;36.7912
Benaoján;-5.25315;36.71874
Benarrabá;-5.276832;36.55169
Borge (El);-4.23489;36.81446
Burgo (El);-4.946407;36.78993
Campillos;-4.861525;37.04541
Cañete la Real;-5.024308;36.95146
Canillas de Aceituno;-4.082042;36.87345
Canillas de Albaida;-3.987585;36.84607
Carratraca;-4.818239;36.85158
Cartajima;-5.153931;36.6454
Cártama;-4.630741;36.71131
Casabermeja;-4.428977;36.89404
Casarabonela;-4.842167;36.78524
Casares;-5.273519;36.44333
Coín;-4.760344;36.65871
Colmenar;-4.335212;36.90502
Comares;-4.247061;36.84872
Cómpeta;-3.974872;36.833
Cortes de la Frontera;-5.342681;36.61691
Cuevas Bajas;-4.489641;37.23587
Cuevas de San Marcos;-4.414079;37.26963
Cuevas del Becerro;-5.045729;36.87637
Cútar;-4.228007;36.83069
Estepona;-5.144903;36.42477
Faraján;-5.189152;36.6162
Frigiliana;-3.898076;36.79252
Fuengirola;-4.624353;36.53901
Fuente de Piedra;-4.729656;37.13463
Gaucín;-5.317524;36.5183
Genalguacil;-5.235879;36.54427
Guaro;-4.833355;36.65645
Humilladero;-4.703457;37.11469
Igualeja;-5.122461;36.63033
Istán;-4.949401;36.58216
Iznate;-4.18356;36.77612
Jimera de Líbar;-5.273455;36.65202
Jubrique;-5.215247;36.56432
Júzcar;-5.170815;36.62506
Macharaviaya;-4.213979;36.76239
Málaga;-4.420019;36.71965
Manilva;-5.249271;36.37706
Marbella;-4.886352;36.50994
Mijas;-4.637619;36.5957
Moclinejo;-4.254001;36.7712
Mollina;-4.657106;37.12564
Monda;-4.831124;36.63018
Montejaque;-5.251382;36.73365
Nerja;-3.876649;36.74503
Ojén;-4.856492;36.56424
Parauta;-5.129627;36.65533
Periana;-4.187304;36.92694
Pizarra;-4.707456;36.76717
Pujerra;-5.149421;36.6127
Rincón de la Victoria;-4.275504;36.71566
Riogordo;-4.293622;36.91491
Ronda;-5.166412;36.74196
Salares;-4.024393;36.85496
Sayalonga;-4.011899;36.79799
Sedella;-4.03307;36.86289
Sierra de Yeguas;-4.868739;37.12461
Teba;-4.920274;36.98348
Tolox;-4.904676;36.68674
Torremolinos;-4.500273;36.62179
Torrox;-3.952617;36.75845
Totalán;-4.297044;36.76529
Valle de Abdalajís;-4.682709;36.93133
Vélez-Málaga;-4.100675;36.77864
Villanueva de Algaidas;-4.450837;37.18628
Villanueva de Tapia;-4.335978;37.18035
Villanueva del Rosario;-4.364309;36.99622
Villanueva del Trabuco;-4.338388;37.02825
Viñuela;-4.141331;36.8628
Yunquera;-4.920869;36.73168
Aguadulce;-4.991125;37.25283
Alanís;-5.715293;38.03748
Albaida del Aljarafe;-6.165926;37.42702
Alcalá de Guadaíra;-5.844032;37.33833
Alcalá del Río;-5.978236;37.51827
Alcolea del Río;-5.671293;37.61416
Algaba (La);-6.013736;37.46177
Algámitas;-5.149775;37.01501
Almadén de la Plata;-6.079766;37.87345
Almensilla;-6.113987;37.30904
Arahal;-5.542829;37.2641
Aznalcázar;-6.248415;37.30518
Aznalcóllar;-6.269565;37.52354
Badolatosa;-4.672858;37.30871
Benacazón;-6.199005;37.35343
Bollullos de la Mitación;-6.138757;37.34011
Bormujos;-6.070961;37.37101
Brenes;-5.873065;37.55057
Burguillos;-5.967274;37.58725
Cabezas de San Juan (Las);-5.940864;36.98133
Camas;-6.032911;37.40087
Campana (La);-5.425768;37.56945
Cañada Rosal;-5.210358;37.59894
Cantillana;-5.825826;37.60867
Carmona;-5.642328;37.47102
Carrión de los Céspedes;-6.328958;37.36847
Casariche;-4.759532;37.29389
Castilblanco de los Arroyos;-5.9893;37.67459
Castilleja de Guzmán;-6.057408;37.40865
Castilleja de la Cuesta;-6.051838;37.38644
Castilleja del Campo;-6.33445;37.38591
Castillo de las Guardas (El);-6.314299;37.6916
Cazalla de la Sierra;-5.760799;37.9296
Constantina;-5.619115;37.87227
Coria del Río;-6.051814;37.28506
Coripe;-5.441308;36.97023
Coronil (El);-5.633467;37.08228
Corrales (Los);-4.98291;37.09732
Cuervo de Sevilla (El);-6.041625;36.85136
Dos Hermanas;-5.922242;37.28318
Écija;-5.079953;37.54093
Espartinas;-6.123577;37.37997
Estepa;-4.878506;37.29147
Fuentes de Andalucía;-5.348385;37.46221
Garrobo (El);-6.172421;37.62539
Gelves;-6.025333;37.33677
Gerena;-6.157654;37.52553
Gilena;-4.913494;37.25134
Gines;-6.078264;37.38713
Guadalcanal;-5.821165;38.09198
Guillena;-6.052268;37.53902
Herrera;-4.850014;37.36176
Huévar del Aljarafe;-6.27659;37.35599
Isla Mayor;-6.162807;37.13356
Lantejuela (La);-5.222986;37.35353
Lebrija;-6.078367;36.91951
Lora de Estepa;-4.827815;37.26869
Lora del Río;-5.526284;37.65923
Luisiana (La);-5.248721;37.52613
Madroño (El);-6.511699;37.64548
Mairena del Alcor;-5.747595;37.37316
Mairena del Aljarafe;-6.065354;37.34449
Marchena;-5.416465;37.32972
Marinaleda;-4.953792;37.37473
Martín de la Jara;-4.962173;37.10655
Molares (Los);-5.719529;37.15531
Montellano;-5.570882;36.99564
Morón de la Frontera;-5.451869;37.1223
Navas de la Concepción (Las);-5.464808;37.93347
Olivares;-6.155926;37.41868
Osuna;-5.102748;37.23697
Palacios y Villafranca (Los);-5.924166;37.15859
Palomares del Río;-6.057716;37.32256
Paradas;-5.497219;37.28981
Pedrera;-4.896754;37.22301
Pedroso (El);-5.763515;37.84222
Peñaflor;-5.346412;37.70726
Pilas;-6.302449;37.30167
Pruna;-5.222943;36.97364
Puebla de Cazalla (La);-5.31227;37.22441
Puebla de los Infantes (La);-5.388995;37.77852
Puebla del Río (La);-6.062557;37.26748
Real de la Jara (El);-6.1559;37.95061
Rinconada (La);-5.979309;37.4878
Roda de Andalucía (La);-4.779276;37.20099
Ronquillo (El);-6.176963;37.72555
Rubio (El);-4.988925;37.3557
Salteras;-6.111633;37.41824
San Juan de Aznalfarache;-6.035451;37.35838
San Nicolás del Puerto;-5.653036;37.99353
Sanlúcar la Mayor;-6.201977;37.38578
Santiponce;-6.038414;37.43869
Saucejo (El);-5.096187;37.07005
Sevilla;-5.996295;37.38264
Tocina;-5.733069;37.60978
Tomares;-6.045198;37.37404
Umbrete;-6.157722;37.36993
Utrera;-5.781507;37.18142
Valencina de la Concepción;-6.076959;37.41601
Villamanrique de la Condesa;-6.306533;37.2463
Villanueva de San Juan;-5.175473;37.05036
Villanueva del Ariscal;-6.141313;37.39572
Villanueva del Río y Minas;-5.714389;37.6601
Villaverde del Río;-5.873684;37.58805
Viso del Alcor (El);-5.719357;37.38826
Abiego;-0.0710325;42.12121
Abizanda;0.1962168;42.24253
Adahuesca;-0.0074547;42.14478
Agüero;-0.7945753;42.35485
Aínsa-Sobrarbe;0.1469093;42.41556
Aisa;0.6169444;42.68278
Albalate de Cinca;0.145821;41.72295
Albalatillo;-0.1505924;41.73671
Albelda;0.4611521;41.86542
Albero Alto;-0.3374676;42.05005
Albero Bajo;-0.3813607;42.0252
Alberuela de Tubo;-0.2136612;41.9088
Alcalá de Gurrea;-0.6856087;42.06782
Alcalá del Obispo;-0.2930976;42.07784
Alcampell;0.4318866;41.9059
Alcolea de Cinca;0.1180138;41.71719
Alcubierre;-0.4514643;41.8068
Alerre;-0.462901;42.16312
Alfántega;0.1477768;41.82908
Almudévar;-0.5796334;42.03736
Almunia de San Juan;0.24484;41.93567
Almuniente;-0.4104751;41.94961
Alquézar;0.0240388;42.17119
Altorricón;0.4131394;41.80322
Angüés;-0.153561;42.11126
Ansó;-0.8281171;42.75754
Antillón;-0.1623112;42.0359
Aragüés del Puerto;-0.6700809;42.70673
Arén;0.7209243;42.25887
Argavieso;-0.2790706;42.05301
Arguis;-0.4385688;42.31468
Ayerbe;-0.6887537;42.27497
Azanuy-Alins;0.3116778;41.9738
Azara;-0.0314073;42.06894
Azlor;-0.0439338;42.09446
Baélls;0.4596325;41.95377
Bailo;-0.8113827;42.51
Baldellou;0.5468061;41.91793
Ballobar;0.1911941;41.62202
Banastás;-0.4504838;42.18112
Barbastro;0.1239805;42.0348
Barbués;-0.419158;41.97961
Barbuñales;-0.0875083;42.02539
Bárcabo;0.0694723;42.24125
Belver de Cinca;0.1784385;41.68973
Benabarre;0.4791799;42.10639
Benasque;0.5239731;42.60514
Berbegal;-0.0015523;41.96134
Bielsa;0.2184766;42.6338
Bierge;-0.0829719;42.16133
Biescas;-0.3246984;42.62798
Binaced;0.2010187;41.82656
Binéfar;0.2937235;41.85286
Bisaurri;0.5070404;42.4967
Biscarrués;-0.7515044;42.22821
Blecua y Torres;-0.1870271;42.05741
Boltaña;0.0698157;42.44247
Bonansa;0.6676375;42.4271
Borau;-0.5881645;42.65874
Broto;-0.1235453;42.60481
Caldearenas;-0.4999619;42.39699
Campo;0.3940125;42.40875
Camporrélls;0.5218998;41.95886
Canal de Berdún;-0.8584673;42.60377
Candasnos;0.0641451;41.50383
Canfranc;-0.5256487;42.71557
Capdesaso;-0.1854229;41.84393
Capella;0.3961923;42.19704
Casbas de Huesca;-0.1404078;42.15627
Castejón de Monegros;-0.2399075;41.61756
Castejón de Sos;0.4930989;42.5132
Castejón del Puente;0.1569228;41.96238
Castelflorite;-0.0215957;41.80238
Castiello de Jaca;-0.5506048;42.6319
Castigaleu;0.5783337;42.20435
Castillazuelo;0.0654169;42.06716
Castillonroy;0.5141938;41.88442
Chalamera;0.1619226;41.66556
Chía;0.4657107;42.52047
Chimillas;-0.4507998;42.17066
Colungo;0.0645458;42.17274
Esplús;0.2743229;41.79845
Estada;0.2348273;42.07153
Estadilla;0.2439407;42.056
Estopiñán del Castillo;0.5428858;41.99734
Fago;-0.8654409;42.73519
Fanlo;-0.0211814;42.58699
Fiscal;-0.1211532;42.49565
Fonz;0.2583155;42.01005
Foradada del Toscar;0.3507822;42.41026
Fraga;0.3489263;41.52243
Fueva (La);0.2807868;42.45247
Gistaín;0.3360597;42.59116
Grado (El);0.2234078;42.15097
Grañén;-0.3692021;41.93995
Graus;0.3389097;42.19274
Gurrea de Gállego;-0.7621484;42.01335
Hoz de Jaca;-0.3062892;42.69039
Hoz y Costean;0.1333333;42.13334
Huerto;-0.1666296;41.93188
Huesca;-0.408898;42.1401
Ibieca;-0.2077939;42.16119
Igriés;-0.4315612;42.21444
Ilche;0.0574015;41.95788
Isábena;0.527;42.31
Jaca;-0.5494531;42.57101
Jasa;-0.665348;42.69462
Labuerda;0.1346856;42.452
Laluenga;-0.0464519;42.00335
Lalueza;-0.255536;41.84184
Lanaja;-0.32952;41.77214
Laperdiguera;-0.0464749;41.99125
Lascellas-Ponzano;-0.075216;42.06499
Lascuarre;0.5159816;42.19926
Laspaúles;0.5984959;42.47078
Laspuña;0.1536913;42.50342
Loarre;-0.6249158;42.31464
Loporzano;-0.324034;42.16131
Loscorrales;-0.6408842;42.25349
Lupiñén-Ortilla;-0.5807649;42.17545
Monesma y Cajigar;0.5972991;42.26012
Monflorite-Lascasas;-0.3563396;42.09462
Montanuy;0.6956547;42.46497
Monzón;0.1946406;41.91031
Naval;0.152271;42.1935
Novales;-0.2884137;42.03196
Nueno;-0.4402177;42.26603
Olvena;0.2596299;42.10948
Ontiñena;0.0884791;41.67529
Osso de Cinca;0.1914486;41.66531
Palo;0.24378;42.32282
Panticosa;-0.282123;42.72368
Peñalba;-0.0384445;41.50001
Peñas de Riglos (Las);-0.7268404;42.34886
Peralta de Alcofea;-0.0664381;41.93196
Peralta de Calasanz;0.3936722;42.01811
Peraltilla;-0.0169962;42.05527
Perarrúa;0.3514397;42.26766
Pertusa;-0.1273263;42.00211
Piracés;-0.3173049;42.00398
Plan;-0.3333333;42.56667
Poleñino;-0.3096014;41.87049
Pozán de Vero;0.0336244;42.08028
Puebla de Castro (La);0.2874012;42.14466
Puente de Montañana;0.6935181;42.15042
Puente la Reina de Jaca;-0.787348;42.56241
Puértolas;0.132426;42.54812
Pueyo de Araguás (El);0.1618542;42.44161
Pueyo de Santa Cruz;0.1572041;41.85814
Quicena;-0.3585494;42.14807
Robres;-0.4609118;41.86637
Sabiñánigo;-0.3650786;42.5197
Sahún;0.4648095;42.57606
Salas Altas;0.0712943;42.11472
Salas Bajas;0.0836292;42.09966
Salillas;-0.2247787;41.99313
Sallent de Gállego;-0.3347842;42.77204
San Esteban de Litera;0.3258535;41.90414
San Juan de Plan;0.3445169;42.5874
San Miguel del Cinca;0.0761111;41.82222
Sangarrén;-0.4311999;42.01752
Santa Cilia;-0.7136365;42.56117
Santa Cruz de la Serós;-0.6743599;42.52251
Santa María de Dulcis;0.0238889;42.12139
Santaliestra y San Quílez;0.3654154;42.30676
Sariñena;-0.1572419;41.79218
Secastilla;0.2667636;42.18098
Seira;0.4298865;42.48045
Sena;-0.0437513;41.71468
Senés de Alcubierre;-0.4904756;41.90733
Sesa;-0.2454906;41.99627
Sesué;0.4727303;42.55166
Siétamo;-0.2796467;42.12341
Sopeira;0.7468303;42.31677
Sotonera (La);-0.5446912;42.25468
Tamarite de Litera;0.4220118;41.86698
Tardienta;-0.538924;41.97935
Tella-Sin;0.2;42.58333
Tierz;-0.3533829;42.13257
Tolva;0.56399;42.11551
Torla;-0.1106253;42.62793
Torralba de Aragón;-0.5106578;41.93518
Torre la Ribera;0.5268245;42.37292
Torrente de Cinca;0.3348973;41.47287
Torres de Alcanadre;-0.1109713;41.968
Torres de Barbués;-0.4323657;41.95996
Tramaced;-0.2976621;41.97267
Valfarta;-0.1338425;41.55791
Valle de Bardají;0.4666667;42.43333
Valle de Hecho;-0.7503078;42.7395
Valle de Lierp;0.489;42.38
Velilla de Cinca;0.261464;41.587
Vencillón;0.3219554;41.7051
Veracruz;0.610943;42.38238
Viacamp y Litera;0.6159651;42.12725
Vicién;-0.4401985;42.0555
Villanova;0.4618572;42.54668
Villanúa;-0.5308006;42.67982
Villanueva de Sigena;-0.0088677;41.71533
Yebra de Basa;-0.2820295;42.48631
Yésero;-0.2497312;42.61928
Zaidín;0.266089;41.60407
Ababuj;-0.8077833;40.54846
Abejuela;-0.8941151;39.91035
Aguatón;-1.234348;40.67128
Aguaviva;-0.197559;40.82281
Aguilar del Alfambra;-0.7964078;40.59013
Alacón;-0.6967831;41.02371
Alba;-1.345689;40.61812
Albalate del Arzobispo;-0.510963;41.12081
Albarracín;-1.444402;40.40652
Albentosa;-0.7695187;40.10305
Alcaine;-0.7054526;40.95359
Alcalá de la Selva;-0.7197202;40.37181
Alcañiz;-0.1306302;41.04895
Alcorisa;-0.3806293;40.89169
Alfambra;-1.033759;40.54725
Aliaga;-0.7019678;40.67419
Allepuz;-0.7275794;40.49272
Alloza;-0.5302091;40.96944
Allueva;-1.042622;40.98565
Almohaja;-1.437312;40.60515
Alobras;-1.388046;40.17833
Alpeñés;-1.065551;40.79881
Anadón;-0.9833327;40.98174
Andorra;-0.4436573;40.97544
Arcos de las Salinas;-1.042252;39.99099
Arens de Lledó;0.2717271;40.99172
Argente;-1.163326;40.68888
Ariño;-0.5921203;41.03015
Azaila;-0.4952874;41.29047
Bádenas;-1.121329;41.09168
Báguena;-1.356289;41.04003
Bañón;-1.190015;40.83926
Barrachina;-1.140161;40.89761
Bea;-1.146732;41.03651
Beceite;0.1795601;40.83106
Bello;-1.499419;40.92228
Belmonte de San José;-0.0630138;40.87395
Berge;-0.426644;40.85691
Bezas;-1.32469;40.33197
Blancas;-1.48246;40.81325
Blesa;-0.8843605;41.05129
Bordón;-0.3218952;40.68736
Bronchales;-1.589083;40.50909
Bueña;-1.267302;40.70864
Burbáguena;-1.337462;41.01594
Cabra de Mora;-0.8070812;40.31739
Calaceite;0.1883228;41.01737
Calamocha;-1.300972;40.92026
Calanda;-0.2341148;40.94182
Calomarde;-1.575251;40.37254
Camañas;-1.137267;40.64226
Camarena de la Sierra;-1.040907;40.1476
Camarillas;-0.7541127;40.61241
Caminreal;-1.325887;40.83794
Cañada de Benatanduz;-0.5349099;40.58067
Cañada de Verich (La);-0.0995028;40.86644
Cañada Vellida;-0.9136373;40.7075
Cañizar del Olivar;-0.6457179;40.81605
Cantavieja;-0.4055863;40.52803
Cascante del Río;-1.11522;40.1959
Castejón de Tornos;-1.425183;40.99822
Castel de Cabra;-0.6970078;40.80246
Castellar (El);-0.8173128;40.36524
Castellote;-0.3202745;40.80043
Castelnou;-0.364945;41.22842
Castelserás;-0.1479251;40.98142
Cedrillas;-0.8514571;40.43633
Celadas;-1.1496;40.4751
Cella;-1.286764;40.4551
Cerollera (La);-0.055186;40.84003
Codoñera (La);-0.0862302;40.93358
Corbalán;-0.9857588;40.4036
Cortes de Aragón;-0.8356173;40.97435
Cosa;-1.136364;40.8343
Cretas;0.2118405;40.92919
Crivillén;-0.5752621;40.88327
Cuba (La);-0.2970706;40.59166
Cubla;-1.079226;40.21148
Cucalón;-1.214002;41.08574
Cuervo (El);-1.325314;40.15096
Cuevas de Almudén;-0.8305358;40.71449
Cuevas Labradas;-1.05266;40.45322
Ejulve;-0.5545593;40.77497
Escorihuela;-0.9731783;40.54573
Escucha;-0.8095553;40.79532
Estercuel;-0.63077;40.85538
Ferreruela de Huerva;-1.233128;41.06351
Fonfría;-1.08479;40.99593
Formiche Alto;-0.8938176;40.32515
Fórnoles;-0.0040137;40.89391
Fortanete;-0.523106;40.50564
Foz-Calanda;-0.2674085;40.92335
Fresneda (La);0.0749166;40.928
Frías de Albarracín;-1.61514;40.33777
Fuenferrada;-1.011204;40.86872
Fuentes Calientes;-0.9790183;40.70115
Fuentes Claras;-1.323613;40.86362
Fuentes de Rubielos;-0.6190795;40.16914
Fuentespalda;0.0646729;40.80629
Galve;-0.8808522;40.65557
Gargallo;-0.5847404;40.83582
Gea de Albarracín;-1.34803;40.41083
Ginebrosa (La);-0.1334234;40.87043
Griegos;-1.710974;40.42653
Guadalaviar;-1.717363;40.38779
Gúdar;-0.720406;40.44069
Híjar;-0.451008;41.17572
Hinojosa de Jarque;-0.78589;40.69128
Hoz de la Vieja (La);-0.8433804;40.92379
Huesa del Común;-0.919908;41.00974
Iglesuela del Cid (La);-0.3190694;40.48194
Jabaloyas;-1.407509;40.24036
Jarque de la Val;-0.801036;40.70321
Jatiel;-0.3813306;41.21877
Jorcas;-0.7536469;40.54332
Josa;-0.7673877;40.95604
Lagueruela;-1.192358;41.04225
Lanzuela;-1.204139;41.09767
Libros;-1.234506;40.16194
Lidón;-1.11308;40.71624
Linares de Mora;-0.5739371;40.32256
Lledó;0.2769528;40.95488
Loscos;-1.044818;41.08124
Maicas;-0.8897479;40.966
Manzanera;-0.8298928;40.05788
Martín del Río;-0.895496;40.84419
Mas de las Matas;-0.2415907;40.83395
Mata de los Olmos (La);-0.5210474;40.86584
Mazaleón;0.1039728;41.04979
Mezquita de Jarque;-0.8684379;40.72208
Mirambel;-0.3423839;40.58709
Miravete de la Sierra;-0.6942516;40.57729
Molinos;-0.450496;40.81963
Monforte de Moyuela;-1.014965;41.05423
Monreal del Campo;-1.354099;40.7903
Monroyo;-0.0317478;40.7874
Montalbán;-0.7995237;40.83571
Monteagudo del Castillo;-0.8180161;40.45858
Monterde de Albarracín;-1.491821;40.49734
Mora de Rubielos;-0.7525505;40.25319
Moscardón;-1.537196;40.33262
Mosqueruela;-0.4491089;40.36135
Muniesa;-0.8120759;41.03386
Noguera de Albarracín;-1.597306;40.46058
Nogueras;-1.066893;41.13451
Nogueruelas;-0.637303;40.23698
Obón;-0.7230815;40.90473
Odón;-1.567813;40.88443
Ojos Negros;-1.500031;40.73796
Olba;-0.6249871;40.13258
Oliete;-0.6744237;40.99805
Olmos (Los);-0.4884439;40.87758
Orihuela del Tremedal;-1.649716;40.55058
Orrios;-0.9876969;40.58663
Palomar de Arroyos;-0.7503164;40.77993
Pancrudo;-1.029473;40.76154
Parras de Castellote (Las);-0.2433772;40.77547
Peñarroya de Tastavins;0.0393172;40.75538
Peracense;-1.469499;40.64172
Peralejos;-1.0332;40.48456
Perales del Alfambra;-1.003348;40.63414
Pitarque;-0.5922781;40.64859
Plou;-0.8543398;40.99202
Pobo (El);-0.8608847;40.50883
Portellada (La);0.0554401;40.88211
Pozondón;-1.470096;40.56161
Pozuel del Campo;-1.506898;40.77131
Puebla de Híjar (La);-0.443926;41.2209
Puebla de Valverde (La);-0.9297862;40.2247
Puertomingalvo;-0.4600198;40.26479
Ráfales;0.0208083;40.83759
Rillo;-0.9954608;40.72252
Riodeva;-1.148196;40.11693
Ródenas;-1.516299;40.64137
Royuela;-1.512188;40.37698
Rubiales;-1.269214;40.27658
Rubielos de la Cérida;-1.212446;40.77098
Rubielos de Mora;-0.6514604;40.19006
Salcedillo;-1.005372;40.96213
Saldón;-1.428428;40.32478
Samper de Calanda;-0.390319;41.19006
San Agustín;-0.6927521;40.05976
San Martín del Río;-1.386255;41.06547
Santa Cruz de Nogueras;-1.088758;41.11458
Santa Eulalia;-1.312636;40.56639
Sarrión;-0.815191;40.14188
Segura de los Baños;-0.9511759;40.9402
Seno;-0.3388541;40.81201
Singra;-1.311811;40.65592
Terriente;-1.504428;40.29725
Teruel;-1.10691;40.34411
Toril y Masegoso;-1.486454;40.24846
Tormón;-1.353761;40.20275
Tornos;-1.433829;40.96223
Torralba de los Sisones;-1.459222;40.89043
Torre de Arcas;-0.067632;40.75116
Torre de las Arcas;-0.7188649;40.84147
Torre del Compte;0.109912;40.93546
Torre los Negros;-1.097085;40.8533
Torrecilla de Alcañiz;-0.0919182;40.96016
Torrecilla del Rebollar;-1.071651;40.91006
Torrelacárcel;-1.304147;40.61382
Torremocha de Jiloca;-1.297152;40.59011
Torres de Albarracín;-1.532242;40.42721
Torrevelilla;-0.1098415;40.90303
Torrijas;-0.9575675;40.02264
Torrijo del Campo;-1.336394;40.82687
Tramacastiel;-1.240698;40.18864
Tramacastilla;-1.56905;40.43096
Tronchón;-0.3990553;40.62114
Urrea de Gaén;-0.4705417;41.16009
Utrillas;-0.843052;40.81327
Valacloche;-1.091322;40.19118
Valbona;-0.8106206;40.22942
Valdealgorfa;-0.0347835;40.99085
Valdecuenca;-1.406765;40.29699
Valdelinares;-0.6063926;40.3917
Valdeltormo;0.084194;40.98577
Valderrobres;0.1556791;40.87544
Valjunquera;0.0259745;40.95302
Vallecillo (El);-1.566361;40.2346
Veguillas de la Sierra;-1.406137;40.15477
Villafranca del Campo;-1.347499;40.69447
Villahermosa del Campo;-1.246205;41.10942
Villanueva del Rebollar de la Sierra;-1.009121;40.8915
Villar del Cobo;-1.673985;40.39555
Villar del Salz;-1.49918;40.68233
Villarluengo;-0.5297248;40.64831
Villarquemado;-1.267652;40.51945
Villarroya de los Pinares;-0.6699603;40.53041
Villastar;-1.152892;40.28053
Villel;-1.187274;40.23469
Vinaceite;-0.5779686;41.26624
Visiedo;-1.098317;40.68581
Vivel del Río Martín;-0.9402806;40.87017
Zoma (La);-0.618576;40.78397
Abanto;-1.698687;41.13691
Acered;-1.604282;41.17023
Agón;-1.452092;41.85692
Aguarón;-1.26809;41.33798
Aguilón;-1.046726;41.29503
Ainzón;-1.520205;41.81704
Aladrén;-1.155967;41.24913
Alagón;-1.121953;41.77036
Alarba;-1.613624;41.20458
Alberite de San Juan;-1.470257;41.81969
Albeta;-1.499618;41.8273
Alborge;-0.3576005;41.3348
Alcalá de Ebro;-1.196587;41.81363
Alcalá de Moncayo;-1.696082;41.7863
Alconchel de Ariza;-2.118907;41.20474
Aldehuela de Liestos;-1.701049;41.06451
Alfajarín;-0.7004536;41.61547
Alfamén;-1.246699;41.43915
Alforque;-0.3856694;41.33142
Alhama de Aragón;-1.894019;41.29637
Almochuel;-0.5502118;41.28008
Almolda (La);-0.2092891;41.55248
Almonacid de la Cuba;-0.7920387;41.27913
Almonacid de la Sierra;-1.322687;41.39656
Almunia de Doña Godina (La);-1.37605;41.4774
Alpartir;-1.382381;41.42068
Ambel;-1.617189;41.79573
Anento;-1.333929;41.07045
Aniñón;-1.70492;41.44526
Añón de Moncayo;-1.721207;41.77882
Aranda de Moncayo;-1.791696;41.57757
Arándiga;-1.502472;41.51111
Ardisa;-0.7574904;42.20103
Ariza;-2.053553;41.31088
Artieda;-0.9840556;42.58543
Asín;-1.046718;42.28297
Atea;-1.554076;41.15928
Ateca;-1.793537;41.33101
Azuara;-0.8684728;41.25877
Badules;-1.254127;41.13863
Bagüés;-0.9455563;42.54947
Balconchán;-1.460723;41.08688
Bárboles;-1.188404;41.71191
Bardallur;-1.21231;41.68325
Belchite;-0.7543449;41.3061
Belmonte de Gracián;-1.5459;41.31591
Berdejo;-1.944459;41.56099
Berrueco;-1.466913;40.99079
Biel;-0.9365878;42.38749
Bijuesca;-1.920954;41.54044
Biota;-1.18699;42.26216
Bisimbre;-1.443099;41.85635
Boquiñeni;-1.249734;41.84874
Bordalba;-2.07819;41.41724
Borja;-1.531878;41.83517
Botorrita;-1.030539;41.50915
Brea de Aragón;-1.598545;41.52528
Bubierca;-1.855994;41.31425
Bujaraloz;-0.1492837;41.49786
Bulbuente;-1.602562;41.81774
Bureta;-1.488251;41.81722
Burgo de Ebro (El);-0.7410918;41.57219
Buste (El);-1.602931;41.88599
Cabañas de Ebro;-1.163833;41.79571
Cabolafuente;-2.038758;41.21166
Cadrete;-0.960096;41.55568
Calatayud;-1.647009;41.35432
Calatorao;-1.344612;41.52506
Calcena;-1.717815;41.6562
Calmarza;-1.912225;41.15789
Campillo de Aragón;-1.844533;41.12734
Carenas;-1.797706;41.27814
Cariñena;-1.224118;41.33694
Caspe;-0.0440777;41.234
Castejón de Alarba;-1.636613;41.18377
Castejón de las Armas;-1.812019;41.31018
Castejón de Valdejasa;-0.9950376;41.98233
Castiliscar;-1.274022;42.37669
Cervera de la Cañada;-1.736934;41.43308
Cerveruela;-1.215514;41.21653
Cetina;-1.966748;41.28929
Chiprana;-0.1253972;41.26306
Chodes;-1.480644;41.48694
Cimballa;-1.774756;41.10086
Cinco Olivas;-0.3712549;41.33767
Clarés de Ribota;-1.83879;41.52947
Codo;-0.6999325;41.33324
Codos;-1.374475;41.29329
Contamina;-1.9175;41.30536
Cosuenda;-1.297405;41.36493
Cuarte de Huerva;-0.9310773;41.59271
Cubel;-1.637927;41.09658
Cuerlas (Las);-1.548931;40.95918
Daroca;-1.413934;41.11533
Ejea de los Caballeros;-1.137434;42.12921
Embid de Ariza;-1.971057;41.38058
Encinacorba;-1.276396;41.28462
Épila;-1.2846;41.60128
Erla;-0.948871;42.11683
Escatrón;-0.3247748;41.29251
Fabara;0.1670119;41.17867
Farlete;-0.5062719;41.68092
Fayón;0.3339737;41.24017
Fayos (Los);-1.782601;41.87784
Figueruelas;-1.175401;41.76659
Fombuena;-1.192019;41.14391
Frago (El);-0.9309025;42.27137
Frasno (El);-1.494563;41.41514
Fréscano;-1.450227;41.87501
Fuendejalón;-1.472178;41.76073
Fuendetodos;-0.9598514;41.34285
Fuentes de Ebro;-0.6375385;41.51084
Fuentes de Jiloca;-1.536752;41.22859
Gallocanta;-1.507961;40.99695
Gallur;-1.31786;41.86982
Gelsa;-0.4618234;41.40663
Godojos;-1.863422;41.26862
Gotor;-1.650069;41.54535
Grisel;-1.728725;41.87176
Grisén;-1.162978;41.74393
Herrera de los Navarros;-1.082381;41.21056
Ibdes;-1.834235;41.21877
Illueca;-1.623442;41.53632
Isuerre;-1.055158;42.48816
Jaraba;-1.88306;41.19013
Jarque;-1.678478;41.55592
Jaulín;-0.9948922;41.45332
Joyosa (La);-1.072959;41.74516
Lagata;-0.8047833;41.23999
Langa del Castillo;-1.398226;41.21275
Layana;-1.244285;42.2968
Lécera;-0.7099051;41.20604
Lechón;-1.284122;41.08613
Leciñena;-0.6105711;41.79892
Letux;-0.8041978;41.25518
Litago;-1.751145;41.81446
Lituénigo;-1.761339;41.83528
Lobera de Onsella;-1.022711;42.4778
Longares;-1.168638;41.40359
Longás;-0.9358405;42.48083
Lucena de Jalón;-1.310587;41.55241
Luceni;-1.238942;41.82837
Luesia;-1.021661;42.36987
Luesma;-1.146436;41.16655
Lumpiaque;-1.300083;41.63025
Luna;-0.9318546;42.1665
Maella;0.1398754;41.12497
Magallón;-1.461193;41.83311
Mainar;-1.302247;41.1922
Malanquilla;-1.87526;41.57016
Maleján;-1.548487;41.82794
Mallén;-1.418496;41.90051
Malón;-1.670998;41.95339
Maluenda;-1.614295;41.28719
Manchones;-1.465034;41.14998
Mara;-1.517676;41.28913
María de Huerva;-0.9935882;41.53905
Marracos;-0.7760469;42.09059
Mediana de Aragón;-0.7053687;41.46745
Mequinenza;0.3028557;41.37765
Mesones de Isuela;-1.537185;41.55116
Mezalocha;-1.084933;41.42497
Mianos;-0.9553697;42.58437
Miedes de Aragón;-1.491223;41.25811
Monegrillo;-0.4159632;41.64108
Moneva;-0.8345636;41.12882
Monreal de Ariza;-2.110441;41.29025
Monterde;-1.734744;41.17434
Montón;-1.513659;41.2068
Morata de Jalón;-1.473444;41.47309
Morata de Jiloca;-1.587183;41.24791
Morés;-1.564014;41.47375
Moros;-1.830378;41.39719
Moyuela;-0.9221865;41.1285
Mozota;-1.069631;41.4831
Muel;-1.086437;41.46351
Muela (La);-1.119097;41.58038
Munébrega;-1.705299;41.2516
Murero;-1.481774;41.15878
Murillo de Gállego;-0.7540914;42.33651
Navardún;-1.146918;42.5127
Nigüella;-1.524932;41.53775
Nombrevilla;-1.359756;41.10695
Nonaspe;0.2464202;41.20777
Novallas;-1.693985;41.94646
Novillas;-1.392918;41.93424
Nuévalos;-1.789818;41.21204
Nuez de Ebro;-0.681392;41.5934
Olvés;-1.645912;41.23921
Orcajo;-1.489444;41.10928
Orera;-1.480518;41.29877
Orés;-1.001383;42.27863
Oseja;-1.700389;41.59619
Osera de Ebro;-0.5797311;41.53494
Paniza;-1.21236;41.28468
Paracuellos de Jiloca;-1.639322;41.31345
Paracuellos de la Ribera;-1.562996;41.42469
Pastriz;-0.7817926;41.61824
Pedrola;-1.214005;41.79163
Pedrosas (Las);-0.876332;42.03822
Perdiguera;-0.6316877;41.75367
Piedratajada;-0.8055548;42.1195
Pina de Ebro;-0.5319692;41.48727
Pinseque;-1.103119;41.73702
Pintanos (Los);-1.022003;42.52914
Plasencia de Jalón;-1.229507;41.68133
Pleitas;-1.201795;41.71199
Plenas;-0.9645611;41.11114
Pomer;-1.842308;41.63815
Pozuel de Ariza;-2.153877;41.35161
Pozuelo de Aragón;-1.423838;41.76481
Pradilla de Ebro;-1.264242;41.85991
Puebla de Albortón;-0.8539658;41.38388
Puebla de Alfindén (La);-0.7525974;41.6295
Puendeluna;-0.7571076;42.15305
Purujosa;-1.76452;41.68227
Quinto;-0.4982721;41.42392
Remolinos;-1.176524;41.83844
Retascón;-1.381;41.14454
Ricla;-1.402532;41.50775
Romanos;-1.275405;41.12636
Rueda de Jalón;-1.27299;41.6342
Ruesca;-1.482422;41.28246
Sabiñán;-1.567401;41.44313
Sádaba;-1.272321;42.28138
Salillas de Jalón;-1.324482;41.56659
Salvatierra de Esca;-1.004887;42.66882
Samper del Salz;-0.8231196;41.2346
San Martín de la Virgen de Moncayo;-1.792084;41.83749
San Mateo de Gállego;-0.7690734;41.8306
Santa Cruz de Grío;-1.429943;41.37088
Santa Cruz de Moncayo;-1.757692;41.88181
Santa Eulalia de Gállego;-0.7603972;42.28679
Santed;-1.507787;41.03228
Sástago;-0.3509796;41.3213
Sediles;-1.529476;41.34634
Sestrica;-1.596022;41.4867
Sierra de Luna;-0.9101965;42.04774
Sigüés;-1.012736;42.63047
Sisamón;-2.006145;41.17046
Sobradiel;-1.035496;41.74047
Sos del Rey Católico;-1.215209;42.49719
Tabuenca;-1.543456;41.69511
Talamantes;-1.67829;41.73011
Tarazona;-1.7254;41.90277
Tauste;-1.2554;41.92117
Terrer;-1.71366;41.32751
Tierga;-1.606438;41.60732
Tobed;-1.400918;41.33813
Torralba de los Frailes;-1.66178;41.03682
Torralba de Ribota;-1.68421;41.41766
Torralbilla;-1.338678;41.21043
Torrehermosa;-2.129165;41.23868
Torrelapaja;-1.951242;41.58165
Torrellas;-1.769812;41.89571
Torres de Berrellén;-1.066284;41.75779
Torrijo de la Cañada;-1.877172;41.4741
Tosos;-1.071926;41.31561
Trasmoz;-1.722862;41.82611
Trasobares;-1.641401;41.64327
Uncastillo;-1.130387;42.3615
Undués de Lerda;-1.16971;42.56583
Urrea de Jalón;-1.234124;41.6676
Urriés;-1.129118;42.51891
Used;-1.558385;41.05451
Utebo;-0.9947444;41.71503
Val de San Martín;-1.446303;41.05718
Valdehorna;-1.4231;41.07252
Valmadrid;-0.8846827;41.44337
Valpalmas;-0.854761;42.15822
Valtorres;-1.740684;41.2988
Velilla de Ebro;-0.4378378;41.375
Velilla de Jiloca;-1.604339;41.27439
Vera de Moncayo;-1.68801;41.82396
Vierlas;-1.681115;41.92807
Villadoz;-1.287342;41.16254
Villafeliche;-1.510609;41.19633
Villafranca de Ebro;-0.6503196;41.57368
Villalba de Perejil;-1.548673;41.3273
Villalengua;-1.839539;41.43472
Villamayor de Gállego;-0.7733151;41.68518
Villanueva de Gállego;-0.8275479;41.76796
Villanueva de Huerva;-1.036983;41.35206
Villanueva de Jiloca;-1.392371;41.07542
Villar de los Navarros;-1.042793;41.15837
Villarreal de Huerva;-1.287282;41.19093
Villarroya de la Sierra;-1.785797;41.46388
Villarroya del Campo;-1.324364;41.14323
Vilueña (La);-1.72523;41.2723
Vistabella;-1.153446;41.21913
Zaida (La);-0.4269484;41.32636
Zaragoza;-0.8765379;41.65629
Zuera;-0.7881644;41.86918
Allande;-6.616667;43.26667
Aller;-5.687873;43.1497
Amieva;-5.074191;43.24429
Avilés;-5.927617;43.55577
Belmonte de Miranda;-6.218905;43.28253
Bimenes;-5.564885;43.3307
Boal;-6.817878;43.4296
Cabrales;-4.8;43.3
Cabranes;-5.407559;43.41804
Candamo;-6.058167;43.44661
Cangas de Onís;-5.126967;43.3485
Cangas del Narcea;-6.549129;43.17706
Caravia;-5.183306;43.44997
Carreño;-5.789795;43.54855
Caso;-5.35;43.18333
Castrillón;-5.967;43.55
Castropol;-7.030118;43.52812
Coaña;-6.750185;43.51527
Colunga;-5.270611;43.48529
Corvera de Asturias;-5.869227;43.51012
Cudillero;-6.144997;43.56096
Degaña;-6.570541;42.94008
Franco (El);-6.87387;43.55703
Gijón;-5.661926;43.54526
Gozón;-5.789972;43.60997
Grado;-6.06973;43.38855
Grandas de Salime;-6.876276;43.21853
Ibias;-6.866667;43.03333
Illano;-6.864824;43.3314
Illas;-5.966667;43.5
Langreo;-5.682541;43.29636
Laviana;-5.55625;43.23576
Lena;-5.829167;43.15833
Llanera;-5.933333;43.46667
Llanes;-4.750914;43.41953
Mieres;-5.776198;43.25179
Morcín;-5.883333;43.28333
Muros de Nalón;-6.099785;43.5437
Nava;-5.505977;43.35816
Navia;-6.723192;43.5401
Noreña;-5.706471;43.39547
Onís;-4.9675;43.33528
Oviedo;-5.844759;43.36026
Parres;-5.19;43.37
Peñamellera Alta;-4.71;43.32
Peñamellera Baja;-4.59;43.31
Pesoz;-6.876617;43.25797
Piloña;-5.363;43.351
Ponga;-5.16;43.19
Pravia;-6.112017;43.49004
Proaza;-6.015672;43.25117
Quirós;-5.966667;43.15
Regueras (Las);-5.970489;43.41374
Ribadedeva;-4.57;43.37
Ribadesella;-5.059171;43.46145
Ribera de Arriba;-5.893434;43.30809
Riosa;-5.9;43.2
Salas;-6.260448;43.40976
San Martín de Oscos;-6.961694;43.26435
San Martín del Rey Aurelio;-5.607564;43.27671
San Tirso de Abres;-7.143;43.409
Santa Eulalia de Oscos;-7.020291;43.25917
Santo Adriano;-5.972683;43.29916
Sariego;-5.560419;43.40997
Siero;-5.65;43.383
Sobrescobio;-5.466943;43.19417
Somiedo;-6.25;43.1
Soto del Barco;-6.069166;43.53319
Tapia de Casariego;-6.943604;43.56975
Taramundi;-7.111224;43.36177
Teverga;-6.1;43.15
Tineo;-6.414816;43.33509
Valdés;-6.535833;43.54389
Vegadeo;-7.05106;43.46476
Villanueva de Oscos;-6.985969;43.31155
Villaviciosa;-5.435346;43.48137
Villayón;-6.705317;43.44804
Yernes y Tameza;-6.109764;43.27959
Agaete;-15.69982;28.10045
Agüimes;-15.44564;27.90411
Aldea de San Nicolás (La);-15.78118;27.99022
Antigua;-14.01455;28.42347
Arrecife;-13.5476;28.95951
Artenara;-15.64664;28.02005
Arucas;-15.52474;28.11927
Betancuria;-14.05646;28.42438
Firgas;-15.56337;28.10761
Gáldar;-15.65036;28.14404
Haría;-13.4977;29.14651
Ingenio;-15.44246;27.92047
Mogán;-15.72398;27.8837
Moya;-15.58333;28.1
Oliva (La);-13.9288;28.6104
Pájara;-14.10761;28.35059
Palmas de Gran Canaria (Las);-15.43001;28.12482
Puerto del Rosario;-13.86221;28.4965
San Bartolomé;-15.573;27.92461
San Bartolomé de Tirajana;-15.573;27.92461
Santa Brígida;-15.49134;28.0306
Santa Lucía de Tirajana;-15.54124;27.91272
Santa María de Guía de Gran Canaria;-15.63284;28.13915
Teguise;-13.5603;29.05942
Tejeda;-15.61547;27.99499
Telde;-15.41789;27.99604
Teror;-15.54824;28.0595
Tías;-13.65303;28.95304
Tinajo;-13.67695;29.06644
Tuineje;-14.04758;28.32417
Valleseco;-15.5737;28.04794
Valsequillo de Gran Canaria;-15.49928;27.99119
Vega de San Mateo;-15.53256;28.01057
Yaiza;-13.76526;28.95247
Adeje;-16.72464;28.12185
Agulo;-17.19591;28.18672
Alajeró;-17.23902;28.06276
Arafo;-16.41512;28.34072
Arico;-16.47941;28.1778
Arona;-16.68066;28.10047
Barlovento;-17.80326;28.82735
Breña Alta;-17.79119;28.65905
Breña Baja;-17.79027;28.63037
Buenavista del Norte;-16.85024;28.37029
Candelaria;-16.37013;28.35276
Fasnia;-16.43982;28.23996
Frontera;-18.00364;27.75379
Fuencaliente de la Palma;-17.84942;28.4885
Garachico;-16.76521;28.37217
Garafía;-17.91667;28.81667
Granadilla de Abona;-16.57691;28.12018
Guancha (La);-16.65256;28.37436
Guía de Isora;-16.779;28.20995
Güímar;-16.41325;28.31723
Hermigua;-17.19206;28.16725
Icod de los Vinos;-16.71886;28.36761
Llanos de Aridane (Los);-17.91137;28.65619
Matanza de Acentejo (La);-16.46325;28.45248
Orotava (La);-16.52354;28.39108
Paso (El);-17.87833;28.65043
Pinar de El Hierro (El);-18.0243;27.7255
Puerto de la Cruz;-16.54516;28.41339
Puntagorda;-17.96667;28.75
Puntallana;-17.7509;28.73491
Realejos (Los);-16.58333;28.36667
Rosario (El);-16.35815;28.42729
San Andrés y Sauces;-17.76667;28.8
San Cristóbal de La Laguna;-16.31478;28.48812
San Juan de la Rambla;-16.65047;28.39464
San Miguel de Abona;-16.61715;28.09838
San Sebastián de la Gomera;-17.11187;28.09222
Santa Cruz de la Palma;-17.76396;28.68326
Santa Cruz de Tenerife;-16.25486;28.46981
Santa Úrsula;-16.48891;28.42549
Santiago del Teide;-16.81461;28.29614
Sauzal (El);-16.43661;28.47941
Silos (Los);-16.81598;28.36535
Tacoronte;-16.412;28.48153
Tanque (El);-16.78752;28.33258
Tazacorte;-17.93224;28.6427
Tegueste;-16.33353;28.52328
Tijarafe;-17.95;28.7
Valle Gran Rey;-17.32575;28.12357
Vallehermoso;-17.26406;28.17902
Valverde;-17.91566;27.8089
Victoria de Acentejo (La);-16.46762;28.43531
Vilaflor;-16.63811;28.15728
Villa de Mazo;-17.79915;28.58121
Alfoz de Lloredo;-4.166667;43.36666
Ampuero;-3.41566;43.34346
Anievas;-4;43.2
Arenas de Iguña;-4.050034;43.18615
Argoños;-3.485922;43.45803
Arnuero;-3.562917;43.47295
Arredondo;-3.601528;43.27427
Astillero (El);-3.818161;43.40158
Bárcena de Cicero;-3.505684;43.41996
Bárcena de Pie de Concha;-4.046467;43.12004
Bareyo;-3.596607;43.47031
Cabezón de la Sal;-4.232392;43.3074
Cabezón de Liébana;-4.576035;43.13258
Cabuérniga;-4.30376;43.20371
Camaleño;-4.693898;43.15001
Camargo;-3.883333;43.40667
Campoo de Enmedio;-4.15;42.96667
Campoo de Yuso;-4;43.01667
Cartes;-4.069758;43.32322
Castañeda;-3.95332;43.31572
Castro-Urdiales;-3.21957;43.38277
Cieza;-4.083333;43.21667
Cillorigo de Liébana;-4.583333;43.16667
Colindres;-3.449363;43.39538
Comillas;-4.291507;43.38564
Corrales de Buelna (Los);-4.068241;43.25957
Corvera de Toranzo;-3.957237;43.2129
Entrambasaguas;-3.6846;43.37997
Escalante;-3.514102;43.43679
Guriezo;-3.325467;43.35442
Hazas de Cesto;-3.588164;43.39733
Hermandad de Campoo de Suso;-4.216667;43.01667
Herrerías;-4.486163;43.3088
Lamasón;-4.466667;43.25
Laredo;-3.412477;43.41148
Liendo;-3.382125;43.39421
Liérganes;-3.742174;43.34212
Limpias;-3.398698;43.36872
Luena;-3.896081;43.09888
Marina de Cudeyo;-3.75;43.41667
Mazcuerras;-4.206666;43.29861
Medio Cudeyo;-3.731667;43.38139
Meruelo;-3.573889;43.45694
Miengo;-3.99526;43.42711
Miera;-3.711944;43.27555
Molledo;-4.042275;43.15285
Noja;-3.52139;43.47997
Penagos;-3.81413;43.35154
Peñarrubia;-4.578611;43.25583
Pesaguero;-4.538978;43.07704
Pesquera;-4.079455;43.08223
Piélagos;-3.957237;43.38657
Polaciones;-4.413055;43.10194
Polanco;-4.016194;43.385
Potes;-4.6227;43.15347
Puente Viesgo;-3.964917;43.29906
Ramales de la Victoria;-3.465148;43.25792
Rasines;-3.428978;43.30417
Reinosa;-4.139154;43.00071
Reocín;-4.095572;43.34273
Ribamontán al Mar;-3.67;43.45555
Ribamontán al Monte;-3.661389;43.40805
Rionansa;-4.4025;43.25472
Riotuerto;-3.664777;43.34002
Rozas de Valdearroyo (Las);-4.028184;42.97274
Ruente;-4.265683;43.25963
Ruesga;-3.56;43.2825
Ruiloba;-4.250834;43.38167
San Felices de Buelna;-4.048611;43.27528
San Miguel de Aguayo;-4.026556;43.05291
San Pedro del Romeral;-3.819026;43.11516
San Roque de Riomiera;-3.700278;43.23583
San Vicente de la Barquera;-4.398091;43.38593
Santa Cruz de Bezana;-3.904777;43.44282
Santa María de Cayón;-3.854225;43.31036
Santander;-3.807934;43.46096
Santillana del Mar;-4.10918;43.38897
Santiurde de Reinosa;-4.081068;43.06131
Santiurde de Toranzo;-3.940012;43.23869
Santoña;-3.453193;43.44215
Saro;-3.829885;43.26129
Selaya;-3.804945;43.21114
Soba;-3.517222;43.18806
Solórzano;-3.586886;43.37978
Suances;-4.041966;43.42658
Tojos (Los);-4.253353;43.15514
Torrelavega;-4.047017;43.35146
Tresviso;-4.666776;43.25784
Tudanca;-4.375278;43.15389
Udías;-4.246944;43.33833
Val de San Vicente;-4.483611;43.3775
Valdáliga;-4.349167;43.32917
Valdeolea;-4.162222;42.87778
Valdeprado del Río;-4.092881;42.87528
Valderredible;-3.939167;42.80722
Valle de Villaverde;-3.260278;43.24528
Vega de Liébana;-4.665703;43.06046
Vega de Pas;-3.782012;43.15893
Villacarriedo;-3.805764;43.23019
Villaescusa;-3.850833;43.37305
Villafufre;-3.89347;43.26608
Voto;-3.495556;43.35583
Abengibre;-1.544182;39.20999
Alatoz;-1.361155;39.09464
Albacete;-1.86007;38.99765
Albatana;-1.524207;38.56977
Alborea;-1.39587;39.27951
Alcadozo;-1.981464;38.64877
Alcalá del Júcar;-1.429671;39.19346
Alcaraz;-2.492647;38.66966
Almansa;-1.097517;38.86941
Alpera;-1.231247;38.95939
Ayna;-2.070846;38.55318
Balazote;-2.150826;38.88408
Ballestero (El);-2.455432;38.84107
Balsa de Ves;-1.195344;39.26442
Barrax;-2.200169;39.04573
Bienservida;-2.611526;38.51517
Bogarra;-2.214221;38.58138
Bonete;-1.348517;38.8693
Bonillo (El);-2.539598;38.95073
Carcelén;-1.308891;39.10189
Casas-Ibáñez;-1.47113;39.28518
Casas de Juan Núñez;-1.557571;39.10187
Casas de Lázaro;-2.241862;38.77105
Casas de Ves;-1.335103;39.2584
Caudete;-0.9915481;38.70274
Cenizate;-1.661456;39.3043
Chinchilla de Monte-Aragón;-1.722758;38.91862
Corral-Rubio;-1.460988;38.83509
Cotillas;-2.506876;38.4311
Elche de la Sierra;-2.048343;38.44759
Férez;-2.010168;38.35604
Fuensanta;-2.065142;39.24641
Fuente-Álamo;-1.431773;38.69322
Fuentealbilla;-1.549186;39.26686
Gineta (La);-1.996003;39.11287
Golosalvo;-1.636626;39.23994
Hellín;-1.70331;38.51216
Herrera (La);-2.126546;38.96182
Higueruela;-1.445101;38.96424
Hoya-Gonzalo;-1.554348;38.96017
Jorquera;-1.521044;39.17475
Letur;-2.101964;38.36555
Lezuza;-2.353775;38.94902
Liétor;-1.952878;38.5429
Madrigueras;-1.800167;39.23705
Mahora;-1.725332;39.21283
Masegoso;-2.315899;38.71841
Minaya;-2.319947;39.27149
Molinicos;-2.237843;38.46796
Montalvos;-2.027694;39.16689
Montealegre del Castillo;-1.325303;38.78697
Motilleja;-1.791874;39.1806
Munera;-2.482528;39.03984
Navas de Jorquera;-1.71904;39.28074
Nerpio;-2.302496;38.14801
Ontur;-1.498491;38.6147
Ossa de Montiel;-2.745406;38.96335
Paterna del Madera;-2.346145;38.59725
Peñas de San Pedro;-2.004189;38.72722
Peñascosa;-2.410708;38.67118
Pétrola;-1.557605;38.82572
Povedilla;-2.603873;38.70169
Pozo-Lorente;-1.506532;39.07682
Pozo Cañada;-1.736837;38.80128
Pozohondo;-1.911805;38.72114
Pozuelo;-2.100707;38.80923
Recueja (La);-1.490451;39.17558
Riópar;-2.41725;38.49912
Robledo;-2.448879;38.75912
Roda (La);-1.868604;39.0013
Salobre;-2.551266;38.59158
San Pedro;-2.186141;38.82642
Socovos;-1.983432;38.33348
Tarazona de la Mancha;-1.912836;39.26531
Tobarra;-1.693783;38.58844
Valdeganga;-1.677004;39.13523
Vianos;-2.501559;38.63218
Villa de Ves;-1.26016;39.22327
Villalgordo del Júcar;-2.06341;39.29626
Villamalea;-1.599296;39.36189
Villapalacios;-2.635532;38.5746
Villarrobledo;-2.607643;39.26726
Villatoya;-1.340224;39.33326
Villavaliente;-1.458606;39.12596
Villaverde de Guadalimar;-2.517869;38.4555
Viveros;-2.576014;38.7733
Yeste;-2.318711;38.36583
Abenójar;-4.357778;38.87935
Agudo;-4.873152;38.97897
Alamillo;-4.789592;38.67694
Albaladejo;-2.806261;38.61805
Alcázar de San Juan;-3.210137;39.38993
Alcoba;-4.476836;39.26086
Alcolea de Calatrava;-4.115491;38.98661
Alcubillas;-3.134632;38.75202
Aldea del Rey;-3.839462;38.73823
Alhambra;-3.053446;38.89945
Almadén;-4.839919;38.77537
Almadenejos;-4.711933;38.73867
Almagro;-3.706416;38.8909
Almedina;-2.956199;38.6237
Almodóvar del Campo;-4.17864;38.70892
Almuradiel;-3.49485;38.51264
Anchuras;-4.835894;39.48024
Arenales de San Gregorio;-3.026801;39.31037
Arenas de San Juan;-3.502934;39.21769
Argamasilla de Alba;-3.088472;39.12871
Argamasilla de Calatrava;-4.080076;38.72688
Arroba de los Montes;-4.543957;39.15376
Ballesteros de Calatrava;-3.943273;38.83735
Bolaños de Calatrava;-3.666354;38.90565
Brazatortas;-4.296044;38.66077
Cabezarados;-4.297102;38.84591
Cabezarrubias del Puerto;-4.184207;38.61497
Calzada de Calatrava;-3.777296;38.70487
Campo de Criptana;-3.12215;39.40229
Cañada de Calatrava;-4.023607;38.85429
Caracuel de Calatrava;-4.063596;38.84585
Carrión de Calatrava;-3.817681;39.01838
Carrizosa;-2.992662;38.84157
Castellar de Santiago;-3.278269;38.54034
Chillón;-4.867012;38.79689
Ciudad Real;-3.927263;38.9861
Corral de Calatrava;-4.080987;38.8587
Cortijos (Los);-4.066094;39.31525
Cózar;-3.073008;38.66079
Daimiel;-3.616573;39.07178
Fernán Caballero;-3.902586;39.12474
Fontanarejo;-4.517357;39.22077
Fuencaliente;-4.304459;38.40664
Fuenllana;-2.960031;38.75436
Fuente el Fresno;-3.774781;39.23047
Granátula de Calatrava;-3.743112;38.79531
Guadalmez;-4.970738;38.72717
Herencia;-3.354991;39.36691
Hinojosas de Calatrava;-4.140827;38.61498
Horcajo de los Montes;-4.649852;39.32533
Labores (Las);-3.518604;39.27458
Llanos del Caudillo;-3.351936;39.11823
Luciana;-4.292852;38.98382
Malagón;-3.854879;39.17159
Manzanares;-3.373172;38.99636
Membrilla;-3.348246;38.97219
Mestanza;-4.071233;38.57452
Miguelturra;-3.891293;38.96479
Montiel;-2.862144;38.69634
Moral de Calatrava;-3.580616;38.8303
Navalpino;-4.591662;39.22503
Navas de Estena;-4.520943;39.49518
Pedro Muñoz;-2.947798;39.40552
Picón;-4.060833;39.04976
Piedrabuena;-4.175645;39.03277
Poblete;-3.981476;38.93584
Porzuna;-4.153421;39.14607
Pozuelo de Calatrava;-3.837884;38.91215
Pozuelos de Calatrava (Los);-4.169524;38.90118
Puebla de Don Rodrigo;-4.620681;39.08641
Puebla del Príncipe;-2.925579;38.56878
Puerto Lápice;-3.481053;39.32433
Puertollano;-4.112146;38.68604
Retuerta del Bullaque;-4.409563;39.4612
Robledo (El);-4.282607;39.21893
Ruidera;-2.884297;38.97551
Saceruela;-4.610203;38.94388
San Carlos del Valle;-3.241523;38.84432
San Lorenzo de Calatrava;-3.824841;38.47681
Santa Cruz de los Cáñamos;-2.868243;38.63758
Santa Cruz de Mudela;-3.467174;38.64534
Socuéllamos;-2.79432;39.29322
Solana (La);-3.23942;38.94151
Solana del Pino;-4.072587;38.46677
Terrinches;-2.841618;38.60988
Tomelloso;-3.020807;39.15775
Torralba de Calatrava;-3.750029;39.01635
Torre de Juan Abad;-3.060354;38.58471
Torrenueva;-3.362127;38.64016
Valdemanco del Esteras;-4.829856;38.94009
Valdepeñas;-3.384104;38.76053
Valenzuela de Calatrava;-3.772502;38.85281
Villahermosa;-2.871385;38.75026
Villamanrique;-2.996742;38.54818
Villamayor de Calatrava;-4.138183;38.78881
Villanueva de la Fuente;-2.694855;38.69218
Villanueva de los Infantes;-3.014678;38.73712
Villanueva de San Carlos;-3.909619;38.62153
Villar del Pozo;-3.963472;38.84964
Villarrubia de los Ojos;-3.607883;39.21914
Villarta de San Juan;-3.422227;39.24044
Viso del Marqués;-3.562804;38.52327
Abia de la Obispalía;-2.39605;40.01885
Acebrón (El);-2.984723;39.9084
Alarcón;-2.083503;39.54623
Albaladejo del Cuende;-2.227721;39.8069
Albalate de las Nogueras;-2.278006;40.36728
Albendea;-2.416211;40.4884
Alberca de Záncara (La);-2.492847;39.5143
Alcalá de la Vega;-1.525031;40.02644
Alcantud;-2.332832;40.54849
Alcázar del Rey;-2.809569;40.06234
Alcohujate;-2.617193;40.41701
Alconchel de la Estrella;-2.573143;39.71982
Algarra;-1.435464;40.00207
Aliaguilla;-1.327866;39.74189
Almarcha (La);-2.377993;39.68832
Almendros;-2.88657;39.92176
Almodóvar del Pinar;-1.901337;39.72512
Almonacid del Marquesado;-2.766851;39.82319
Altarejos;-2.356508;39.91218
Arandilla del Arroyo;-2.384221;40.51056
Arcas del Villar;-2.114739;39.98858
Arcos de la Sierra;-2.112911;40.3467
Arguisuelas;-1.820736;39.83242
Arrancacepas;-2.358921;40.30261
Atalaya del Cañavate;-2.252711;39.51771
Barajas de Melo;-2.915822;40.12273
Barchín del Hoyo;-2.069453;39.66472
Bascuñana de San Pedro;-2.228446;40.2121
Beamud;-1.829775;40.18665
Belinchón;-3.059993;40.04724
Belmonte;-2.70837;39.55941
Belmontejo;-2.344961;39.82042
Beteta;-2.075595;40.5724
Boniches;-1.624187;39.98527
Buciegas;-2.460521;40.33623
Buenache de Alarcón;-2.160121;39.65448
Buenache de la Sierra;-2.000721;40.13551
Buendía;-2.755545;40.36624
Campillo de Altobuey;-1.795945;39.61043
Campillos-Paravientos;-1.545965;39.97444
Campillos-Sierra;-1.697;40.10048
Campos del Paraíso;-2.718889;40.01111
Cañada del Hoyo;-1.899039;39.96969
Cañada Juncosa;-2.253934;39.54958
Canalejas del Arroyo;-2.494129;40.36887
Cañamares;-2.239738;40.45304
Cañavate (El);-2.303573;39.54417
Cañaveras;-2.398586;40.35969
Cañaveruelas;-2.635902;40.40009
Cañete;-1.646305;40.04148
Cañizares;-2.192938;40.51731
Carboneras de Guadazaón;-1.806176;39.89949
Cardenete;-1.692981;39.76665
Carrascosa;-2.162989;40.59069
Carrascosa de Haro;-2.543077;39.59823
Casas de Benítez;-2.130932;39.36133
Casas de Fernando Alonso;-2.329337;39.35053
Casas de Garcimolina;-1.417351;39.99684
Casas de Guijarro;-2.162812;39.34449
Casas de Haro;-2.272441;39.33335
Casas de los Pinos;-2.371543;39.33388
Casasimarro;-2.036607;39.39071
Castejón;-2.519847;40.38228
Castillejo-Sierra;-2.140604;40.37564
Castillejo de Iniesta;-1.761311;39.52582
Castillo-Albaráñez;-2.392459;40.2987
Castillo de Garcimuñoz;-2.379994;39.6604
Cervera del Llano;-2.422751;39.78236
Chillarón de Cuenca;-2.221351;40.10473
Chumillas;-2.024287;39.85749
Cierva (La);-1.851089;40.05584
Cuenca;-2.134005;40.07183
Cueva del Hierro;-2.03623;40.58282
Enguídanos;-1.608388;39.67319
Fresneda de Altarejos;-2.314399;39.9257
Fresneda de la Sierra;-2.14037;40.39084
Frontera (La);-2.217945;40.40218
Fuente de Pedro Naharro;-3.010809;39.92551
Fuentelespino de Haro;-2.668525;39.69083
Fuentelespino de Moya;-1.47048;39.91993
Fuentenava de Jábaga;-2.263407;40.08694
Fuentes;-2.021356;39.95036
Fuertescusa;-2.17581;40.47557
Gabaldón;-1.941805;39.62656
Garaballa;-1.374854;39.81244
Gascueña;-2.51808;40.2984
Graja de Campalbo;-1.272331;39.89882
Graja de Iniesta;-1.669485;39.51725
Henarejos;-1.485746;39.86519
Herrumblar (El);-1.624107;39.40202
Hinojosa (La);-2.412477;39.72797
Hinojosos (Los);-2.825801;39.60409
Hito (El);-2.717246;39.8594
Honrubia;-2.284828;39.61238
Hontanaya;-2.833314;39.71698
Hontecillas;-2.188108;39.69303
Horcajo de Santiago;-3.001539;39.84166
Huélamo;-1.811318;40.2775
Huelves;-2.883523;40.04359
Huérguina;-1.60891;40.0404
Huerta de la Obispalía;-2.478872;39.98881
Huerta del Marquesado;-1.688257;40.14579
Huete;-2.687307;40.14595
Iniesta;-1.749385;39.44085
Laguna del Marquesado;-1.672261;40.17827
Lagunaseca;-2.01783;40.53081
Landete;-1.364534;39.90768
Ledaña;-1.718999;39.35647
Leganiel;-2.950269;40.16293
Majadas (Las);-2.022764;40.2969
Mariana;-2.147409;40.16734
Masegosa;-2.02547;40.54752
Mesas (Las);-2.767518;39.39007
Minglanilla;-1.600453;39.53357
Mira;-1.43896;39.71872
Monreal del Llano;-2.760229;39.56928
Montalbanejo;-2.498838;39.73309
Montalbo;-2.6688;39.8819
Monteagudo de las Salinas;-1.899315;39.80502
Mota de Altarejos;-2.309652;39.88164
Mota del Cuervo;-2.873104;39.50294
Motilla del Palancar;-1.912222;39.56567
Moya;-1.365402;39.94834
Narboneta;-1.476151;39.75168
Olivares de Júcar;-2.356921;39.76254
Olmeda de la Cuesta;-2.478157;40.31114
Olmeda del Rey;-2.085531;39.80906
Olmedilla de Alarcón;-2.106256;39.61361
Olmedilla de Eliz;-2.419156;40.3034
Osa de la Vega;-2.757446;39.66148
Pajarón;-1.783024;39.95742
Pajaroncillo;-1.734264;39.94511
Palomares del Campo;-2.599587;39.94795
Palomera;-2.050579;40.06735
Paracuellos;-1.790703;39.71741
Paredes;-2.853939;40.0646
Parra de las Vegas (La);-2.204463;39.86818
Pedernoso (El);-2.743056;39.4872
Pedroñeras (Las);-2.680383;39.4494
Peral (El);-1.899395;39.50012
Peraleja (La);-2.55337;40.23627
Pesquera (La);-1.583054;39.57459
Picazo (El);-2.089061;39.44683
Pinarejo;-2.424043;39.61614
Pineda de Gigüela;-2.541807;40.08704
Piqueras del Castillo;-2.083384;39.72054
Portalrubio de Guadamejud;-2.604671;40.27213
Portilla;-2.082824;40.28871
Poyatos;-2.049045;40.42314
Pozoamargo;-2.198173;39.36618
Pozorrubielos de la Mancha;-2.038611;39.44584
Pozorrubio;-2.951034;39.81689
Pozuelo (El);-2.277058;40.62026
Priego;-2.314606;40.44872
Provencio (El);-2.575047;39.38158
Puebla de Almenara;-2.812848;39.78466
Puebla de Don Francisco;-2.757778;40.25583
Puebla del Salvador;-1.673495;39.56639
Quintanar del Rey;-1.929375;39.34257
Rada de Haro;-2.620997;39.56837
Reíllo;-1.873556;39.90438
Rozalén del Monte;-2.804464;39.99071
Saceda-Trasierra;-2.853549;40.15495
Saelices;-2.803459;39.91949
Salinas del Manzano;-1.554214;40.08855
Salmeroncillos;-2.516667;40.5
Salvacañete;-1.500733;40.10073
San Clemente;-2.424473;39.40189
San Lorenzo de la Parrilla;-2.357743;39.84952
San Martín de Boniches;-1.573192;39.8863
San Pedro Palmiches;-2.404971;40.42908
Santa Cruz de Moya;-1.258873;39.95631
Santa María de los Llanos;-2.8083;39.48999
Santa María del Campo Rus;-2.425111;39.55824
Santa María del Val;-2.041021;40.50496
Sisante;-2.202905;39.41085
Solera de Gabaldón;-1.977236;39.74943
Sotorribas;-2.163242;40.19537
Talayuelas;-1.284513;39.84925
Tarancón;-3.006447;40.01054
Tébar;-2.163054;39.49577
Tejadillos;-1.63455;40.13949
Tinajas;-2.583453;40.32578
Torralba;-2.286456;40.3023
Torrejoncillo del Rey;-2.570025;40.00743
Torrubia del Campo;-2.961361;39.89723
Torrubia del Castillo;-2.310545;39.65805
Tragacete;-1.849956;40.3511
Tresjuncos;-2.757274;39.70083
Tribaldos;-2.899395;39.97273
Uclés;-2.86232;39.98186
Uña;-1.979574;40.22349
Valdecolmenas (Los);-2.497222;40.11917
Valdemeca;-1.741087;40.22374
Valdemorillo de la Sierra;-1.779921;40.03857
Valdemoro-Sierra;-1.767433;40.10126
Valdeolivas;-2.446738;40.50447
Valdetórtola;-2.186111;39.92028
Valeras (Las);-2.154847;39.78652
Valhermoso de la Fuente;-2.016262;39.55293
Valsalobre;-2.093301;40.61693
Valverde de Júcar;-2.221901;39.71869
Valverdejo;-2.024116;39.61505
Vara de Rey;-2.293694;39.42599
Vega del Codorno;-1.913025;40.42466
Vellisca;-2.814408;40.12965
Villaconejos de Trabaque;-2.31839;40.3999
Villaescusa de Haro;-2.67406;39.5974
Villagarcía del Llano;-1.846456;39.32651
Villalba de la Sierra;-2.088232;40.23558
Villalba del Rey;-2.642274;40.34509
Villalgordo del Marquesado;-2.508036;39.68231
Villalpardo;-1.624603;39.47199
Villamayor de Santiago;-2.92358;39.72784
Villanueva de Guadamejud;-2.506794;40.22574
Villanueva de la Jara;-1.953522;39.44291
Villar de Cañas;-2.566252;39.77903
Villar de Domingo García;-2.293823;40.23842
Villar de la Encina;-2.521609;39.63701
Villar de Olalla;-2.197358;40.01356
Villar del Humo;-1.628438;39.87116
Villar del Infantado;-2.479164;40.45553
Villar y Velasco;-2.4175;40.14917
Villarejo-Periesteban;-2.443901;39.87305
Villarejo de Fuentes;-2.696304;39.78699
Villarejo de la Peñuela;-2.410047;40.08784
Villares del Saz;-2.506254;39.83939
Villarrubio;-2.894581;39.94577
Villarta;-1.652952;39.4413
Villas de la Ventosa;-2.434874;40.20568
Villaverde y Pasaconsol;-2.265936;39.77055
Víllora;-1.589209;39.75229
Vindel;-2.380786;40.58611
Yémeda;-1.723756;39.76288
Zafra de Záncara;-2.555295;39.89165
Zafrilla;-1.618136;40.19435
Zarza de Tajo;-3.13123;40.01825
Zarzuela;-2.12783;40.25455
Abánades;-2.485381;40.89215
Ablanque;-2.227567;40.89797
Adobes;-1.678581;40.67593
Alaminos;-2.725983;40.86331
Alarilla;-3.105282;40.84969
Albalate de Zorita;-2.841589;40.3085
Albares;-3.012261;40.30751
Albendiego;-3.053864;41.23004
Alcocer;-2.610925;40.46987
Alcolea de las Peñas;-2.784892;41.20986
Alcolea del Pinar;-2.467304;41.03577
Alcoroches;-1.746486;40.6278
Aldeanueva de Guadalajara;-3.047219;40.68185
Algar de Mesa;-1.960034;41.13445
Algora;-2.666353;40.96341
Alhóndiga;-2.82175;40.52711
Alique;-2.645078;40.58601
Almadrones;-2.772906;40.90088
Almoguera;-2.98217;40.29783
Almonacid de Zorita;-2.848529;40.32715
Alocén;-2.750642;40.57409
Alovera;-3.248165;40.5967
Alustante;-1.660092;40.61554
Angón;-2.85539;41.06663
Anguita;-2.368177;41.02637
Anquela del Ducado;-2.132879;40.97213
Anquela del Pedregal;-1.734489;40.74385
Aranzueque;-3.076671;40.49243
Arbancón;-3.114865;40.96434
Arbeteta;-2.40214;40.66935
Argecilla;-2.817813;40.88361
Armallones;-2.302655;40.73587
Armuña de Tajuña;-3.030358;40.53117
Arroyo de las Fraguas;-3.131298;41.1032
Atanzón;-2.997695;40.66655
Atienza;-2.870902;41.19748
Auñón;-2.791876;40.51687
Azuqueca de Henares;-3.268549;40.56503
Baides;-2.78473;41.00534
Baños de Tajo;-1.971264;40.71827
Bañuelos;-2.914215;41.2862
Barriopedro;-2.753756;40.78922
Berninches;-2.801092;40.5716
Bodera (La);-2.886906;41.13491
Brihuega;-2.870508;40.75965
Budia;-2.756927;40.62954
Bujalaro;-2.883265;40.93747
Bustares;-3.072989;41.13528
Cabanillas del Campo;-3.238199;40.63814
Campillo de Dueñas;-1.685099;40.88367
Campillo de Ranas;-3.313725;41.08599
Campisábalos;-3.145698;41.26727
Cañizar;-3.068187;40.76956
Canredondo;-2.492624;40.81306
Cantalojas;-3.246329;41.23297
Cardoso de la Sierra (El);-3.46434;41.09864
Casa de Uceda;-3.370491;40.84337
Casar (El);-3.423473;40.7035
Casas de San Galindo;-2.95777;40.87212
Caspueñas;-2.978881;40.6933
Castejón de Henares;-2.787492;40.93677
Castellar de la Muela;-1.758944;40.81917
Castilforte;-2.432781;40.55718
Castilnuevo;-1.858173;40.81361
Cendejas de Enmedio;-2.872613;40.9825
Cendejas de la Torre;-2.849378;40.979
Centenera;-3.053849;40.65305
Checa;-1.789798;40.58671
Chequilla;-1.827446;40.60582
Chillarón del Rey;-2.690925;40.59719
Chiloeches;-3.162585;40.573
Cifuentes;-2.622788;40.78657
Cincovillas;-2.818308;41.20544
Ciruelas;-3.089445;40.75227
Ciruelos del Pinar;-2.220331;41.00797
Cobeta;-2.142655;40.8659
Cogollor;-2.743719;40.84876
Cogolludo;-3.088776;40.94699
Condemios de Abajo;-3.107607;41.21896
Condemios de Arriba;-3.125767;41.2176
Congostrina;-2.985459;41.03795
Copernal;-3.057492;40.86701
Corduente;-1.978584;40.8428
Cubillo de Uceda (El);-3.403089;40.82448
Driebes;-3.041812;40.2453
Durón;-2.726496;40.624
Embid;-1.711967;40.97253
Escamilla;-2.562215;40.54925
Escariche;-3.05637;40.40807
Escopete;-3.007774;40.4154
Espinosa de Henares;-3.073498;40.90396
Esplegares;-2.370212;40.85608
Establés;-2.024187;41.00653
Estriégana;-2.523945;41.05771
Fontanar;-3.177209;40.72714
Fuembellida;-1.99897;40.75549
Fuencemillán;-3.100931;40.92276
Fuentelahiguera de Albatages;-3.30959;40.78633
Fuentelencina;-2.880722;40.51715
Fuentelsaz;-1.830627;41.0742
Fuentelviejo;-2.983674;40.52599
Fuentenovilla;-3.094111;40.36467
Gajanejos;-2.892307;40.84064
Galápagos;-3.338467;40.69532
Galve de Sorbe;-3.183245;41.22248
Gascueña de Bornova;-3.019817;41.14193
Guadalajara;-3.166493;40.62981
Henche;-2.707037;40.71437
Heras de Ayuso;-3.098835;40.791
Herrería;-1.960182;40.88811
Hiendelaencina;-3.003786;41.08424
Hijes;-2.999697;41.25117
Hita;-3.049552;40.82486
Hombrados;-1.685385;40.80139
Hontoba;-3.041634;40.45571
Horche;-3.061644;40.5683
Hortezuela de Océn;-2.415771;40.95222
Huerce (La);-3.16995;41.15318
Huérmeces del Cerro;-2.796326;41.05323
Huertahernando;-2.286627;40.82372
Hueva;-2.960818;40.46245
Humanes;-3.155397;40.82745
Illana;-2.910629;40.18337
Iniéstola;-2.370169;40.99371
Inviernas (Las);-2.66889;40.87207
Irueste;-2.890399;40.61166
Jadraque;-2.925027;40.92616
Jirueque;-2.902856;40.96425
Ledanca;-2.843731;40.86851
Loranca de Tajuña;-3.113948;40.4469
Lupiana;-3.054468;40.61021
Luzaga;-2.445606;40.97256
Luzón;-2.277313;41.02659
Majaelrayo;-3.299494;41.11357
Málaga del Fresno;-3.247577;40.78782
Malaguilla;-3.257045;40.82191
Mandayona;-2.750973;40.95653
Mantiel;-2.662719;40.61952
Maranchón;-2.20504;41.04764
Marchamalo;-3.200962;40.66821
Masegoso de Tajuña;-2.697101;40.82501
Matarrubia;-3.291975;40.86689
Matillas;-2.842353;40.95211
Mazarete;-2.159138;41.00115
Mazuecos;-3.012189;40.26217
Medranda;-2.936468;40.98389
Megina;-1.869626;40.63909
Membrillera;-2.978674;40.94657
Miedes de Atienza;-2.964246;41.2667
Mierla (La);-3.23648;40.93756
Millana;-2.570991;40.5075
Milmarcos;-1.876277;41.08623
Miñosa (La);-2.93149;41.17905
Mirabueno;-2.725224;40.9441
Miralrío;-2.941914;40.88813
Mochales;-2.014944;41.09599
Mohernando;-3.173942;40.80423
Molina de Aragón;-1.882801;40.84282
Monasterio;-3.097235;40.98498
Mondéjar;-3.115048;40.32302
Montarrón;-3.116191;40.91029
Moratilla de los Meleros;-2.9426;40.50256
Morenilla;-1.707366;40.78625
Muduex;-2.958514;40.83027
Navas de Jadraque (Las);-3.088184;41.10451
Negredo;-2.858656;41.02698
Ocentejo;-2.39799;40.77166
Olivar (El);-2.750611;40.6064
Olmeda de Cobeta;-2.182858;40.85934
Olmeda de Jadraque (La);-2.740615;41.1263
Ordial (El);-3.114783;41.1282
Orea;-1.727038;40.5575
Pálmaces de Jadraque;-2.910686;41.05605
Pardos;-1.925148;40.94779
Paredes de Sigüenza;-2.733836;41.24327
Pareja;-2.650441;40.55681
Pastrana;-2.922605;40.41794
Pedregal (El);-1.570737;40.78004
Peñalén;-2.069259;40.66584
Peñalver;-2.888909;40.57995
Peralejos de las Truchas;-1.909166;40.59257
Peralveche;-2.449482;40.61066
Pinilla de Jadraque;-2.943015;41.02031
Pinilla de Molina;-1.880445;40.6802
Pioz;-3.175737;40.46357
Piqueras;-1.72177;40.66349
Pobo de Dueñas (El);-1.649238;40.7777
Poveda de la Sierra;-2.02876;40.6428
Pozo de Almoguera;-3.029402;40.34271
Pozo de Guadalajara;-3.182096;40.49506
Prádena de Atienza;-3.006566;41.17169
Prados Redondos;-1.794369;40.78471
Puebla de Beleña;-3.2195;40.8895
Puebla de Valles;-3.30298;40.92715
Quer;-3.277798;40.60794
Rebollosa de Jadraque;-2.841893;41.08976
Recuenco (El);-2.339749;40.61627
Renera;-3.016147;40.49182
Retiendas;-3.275091;40.97091
Riba de Saelices;-2.297112;40.91217
Rillo de Gallo;-1.937551;40.86625
Riofrío del Llano;-2.824648;41.13782
Robledillo de Mohernando;-3.234747;40.854
Robledo de Corpes;-2.950481;41.11815
Romanillos de Atienza;-2.895931;41.27492
Romanones;-2.992985;40.57064
Rueda de la Sierra;-1.854492;40.91821
Sacecorbo;-2.417238;40.8327
Sacedón;-2.733063;40.48108
Saelices de la Sal;-2.324149;40.90611
Salmerón;-2.494124;40.54482
San Andrés del Congosto;-3.026757;40.99974
San Andrés del Rey;-2.81983;40.63803
Santiuste;-2.809056;41.08461
Saúca;-2.529474;41.03068
Sayatón;-2.851431;40.37673
Selas;-2.103191;40.95123
Semillas;-3.118647;41.05933
Setiles;-1.618372;40.73423
Sienes;-2.653532;41.2002
Sigüenza;-2.642236;41.0696
Solanillos del Extremo;-2.698229;40.75076
Somolinos;-3.059833;41.24626
Sotillo (El);-2.633242;40.88125
Sotodosos;-2.391471;40.92291
Tamajón;-3.248884;41.00044
Taragudo;-3.080854;40.82277
Taravilla;-1.96769;40.69765
Tartanedo;-1.925651;40.9934
Tendilla;-2.958995;40.54422
Terzaga;-1.903321;40.6949
Tierzo;-1.93057;40.74915
Toba (La);-2.981962;41.00427
Tordellego;-1.669642;40.72094
Tordelrábano;-2.757938;41.21893
Tordesilos;-1.593102;40.6705
Torija;-3.030298;40.74407
Torre del Burgo;-3.079441;40.79575
Torrecuadrada de Molina;-1.806776;40.74963
Torrecuadradilla;-2.531623;40.85292
Torrejón del Rey;-3.337636;40.64526
Torremocha de Jadraque;-2.89966;41.01921
Torremocha del Campo;-2.61857;40.97788
Torremocha del Pinar;-2.045764;40.88856
Torremochuela;-1.841357;40.76517
Torrubia;-1.900333;40.96577
Tórtola de Henares;-3.126269;40.70661
Tortuera;-1.798782;40.9715
Tortuero;-3.354188;40.93563
Traíd;-1.809895;40.66844
Trijueque;-2.995797;40.77686
Trillo;-2.593588;40.70134
Uceda;-3.461408;40.84321
Ujados;-3.005702;41.2352
Utande;-2.928168;40.84823
Valdarachas;-3.126242;40.51648
Valdearenas;-2.991395;40.80917
Valdeavellano;-2.969261;40.66508
Valdeaveruelo;-3.315817;40.63712
Valdeconcha;-2.875932;40.45654
Valdegrudas;-3.016062;40.71348
Valdelcubo;-2.675309;41.22595
Valdenuño Fernández;-3.378795;40.7637
Valdepeñas de la Sierra;-3.387443;40.90821
Valderrebollo;-2.729513;40.8103
Valdesotos;-3.328386;40.95744
Valfermoso de Tajuña;-2.953815;40.61958
Valhermoso;-1.961115;40.78606
Valtablado del Río;-2.401744;40.71436
Valverde de los Arroyos;-3.233801;41.1294
Viana de Jadraque;-2.768869;41.02615
Villanueva de Alcorón;-2.252745;40.67927
Villanueva de Argecilla;-2.914652;40.90212
Villanueva de la Torre;-3.302191;40.58433
Villares de Jadraque;-3.025622;41.10213
Villaseca de Henares;-2.798212;40.96057
Villaseca de Uceda;-3.352177;40.82005
Villel de Mesa;-1.989027;41.12617
Viñuelas;-3.34408;40.79491
Yebes;-3.111498;40.53356
Yebra;-2.965323;40.35676
Yélamos de Abajo;-2.856008;40.63065
Yélamos de Arriba;-2.843132;40.63964
Yunquera de Henares;-3.165951;40.75522
Yunta (La);-1.683895;40.91481
Zaorejas;-2.202039;40.76192
Zarzuela de Jadraque;-3.042809;41.06753
Zorita de los Canes;-2.888904;40.33144
Ajofrín;-3.982614;39.71251
Alameda de la Sagra;-3.796505;40.01226
Albarreal de Tajo;-4.227978;39.89769
Alcabón;-4.369076;40.00249
Alcañizo;-5.105713;39.90467
Alcaudete de la Jara;-4.870331;39.79322
Alcolea de Tajo;-5.149076;39.80831
Aldea en Cabo;-4.455605;40.18369
Aldeanueva de Barbarroya;-5.019921;39.76223
Aldeanueva de San Bartolomé;-5.111573;39.63668
Almendral de la Cañada;-4.739292;40.18548
Almonacid de Toledo;-3.85209;39.75468
Almorox;-4.391364;40.23307
Añover de Tajo;-3.764771;39.98945
Arcicóllar;-4.117677;40.05508
Argés;-4.057286;39.80597
Azután;-5.127171;39.78576
Barcience;-4.233763;39.98309
Bargas;-4.01897;39.94163
Belvís de la Jara;-4.949282;39.76008
Borox;-3.740191;40.06972
Buenaventura;-4.849428;40.17628
Burguillos de Toledo;-3.992624;39.79657
Burujón;-4.298384;39.90132
Cabañas de la Sagra;-3.947354;40.00811
Cabañas de Yepes;-3.53536;39.88974
Cabezamesada;-3.102188;39.81621
Calera y Chozas;-4.978609;39.88144
Caleruela;-5.255383;39.8748
Calzada de Oropesa;-5.278959;39.89803
Camarena;-4.119881;40.09217
Camarenilla;-4.074731;40.01769
Campillo de la Jara (El);-5.054873;39.58957
Camuñas;-3.459021;39.42896
Cardiel de los Montes;-4.656812;40.06345
Carmena;-4.401387;39.95778
Carpio de Tajo (El);-4.45466;39.88752
Carranque;-3.901091;40.1697
Carriches;-4.456778;39.96407
Casar de Escalona (El);-4.523818;40.04669
Casarrubios del Monte;-4.0358;40.18575
Casasbuenas;-4.12657;39.76075
Castillo de Bayuela;-4.685131;40.10114
Cazalegas;-4.67746;40.01085
Cebolla;-4.569388;39.9479
Cedillo del Condado;-3.922378;40.1137
Cerralbos (Los);-4.568843;39.9848
Cervera de los Montes;-4.810708;40.05247
Chozas de Canales;-4.041364;40.09974
Chueca;-3.942378;39.7324
Ciruelos;-3.61703;39.93629
Cobeja;-3.857;40.02474
Cobisa;-4.024558;39.80434
Consuegra;-3.60672;39.46046
Corral de Almaguer;-3.166829;39.76015
Cuerva;-4.211058;39.66404
Domingo Pérez;-4.505118;39.97594
Dosbarrios;-3.476729;39.88408
Erustes;-4.497182;39.95658
Escalona;-4.403674;40.1686
Escalonilla;-4.348843;39.92519
Espinoso del Rey;-4.783727;39.65293
Esquivias;-3.77008;40.10413
Estrella (La);-5.093503;39.68958
Fuensalida;-4.209178;40.05297
Gálvez;-4.274498;39.70341
Garciotum;-4.645718;40.09929
Gerindote;-4.303091;39.96661
Guadamur;-4.147479;39.81336
Guardia (La);-3.477073;39.78557
Herencias (Las);-4.920238;39.86949
Herreruela de Oropesa;-5.242633;39.8897
Hinojosa de San Vicente;-4.724235;40.10402
Hontanar;-4.49834;39.6122
Hormigos;-4.445142;40.09836
Huecas;-4.195808;40.01184
Huerta de Valdecarábanos;-3.611917;39.86433
Iglesuela (La);-4.750336;40.23342
Illán de Vacas;-4.556459;39.97048
Illescas;-3.849206;40.12416
Lagartera;-5.20118;39.90598
Layos;-4.064173;39.77677
Lillo;-3.305534;39.72131
Lominchar;-3.96732;40.08976
Lucillos;-4.612792;39.98657
Madridejos;-3.523135;39.46688
Magán;-3.930584;39.95749
Malpica de Tajo;-4.546063;39.89419
Manzaneque;-3.791711;39.63566
Maqueda;-4.369346;40.06594
Marjaliza;-3.935732;39.56305
Marrupe;-4.793577;40.09016
Mascaraque;-3.81166;39.71626
Mata (La);-4.43835;39.94268
Mazarambroz;-4.021279;39.69421
Mejorada;-4.881894;40.01009
Menasalbas;-4.28475;39.64199
Méntrida;-4.190963;40.23759
Mesegar de Tajo;-4.502378;39.92544
Miguel Esteban;-3.075709;39.52595
Mocejón;-3.914589;39.93911
Mohedas de la Jara;-5.143276;39.60504
Montearagón;-4.632734;39.96447
Montesclaros;-4.938467;40.10761
Mora;-3.773487;39.68426
Nambroca;-3.943745;39.79691
Nava de Ricomalillo (La);-4.990208;39.65143
Navahermosa;-4.469614;39.63567
Navalcán;-5.092264;40.06983
Navalmoralejo;-5.142811;39.73903
Navalmorales (Los);-4.639593;39.72627
Navalucillos (Los);-4.642211;39.666
Navamorcuende;-4.785211;40.15771
Noblejas;-3.439631;39.98035
Noez;-4.184025;39.74052
Nombela;-4.502765;40.15645
Novés;-4.272139;40.04707
Numancia de la Sagra;-3.854127;40.07499
Nuño Gómez;-4.620405;40.11466
Ocaña;-3.499733;39.96031
Olías del Rey;-3.986718;39.94308
Ontígola;-3.572239;40.00346
Orgaz;-3.874646;39.64753
Oropesa;-5.173415;39.91914
Otero;-4.515163;40.00064
Palomeque;-3.963299;40.11916
Pantoja;-3.836551;40.0439
Paredes de Escalona;-4.428842;40.20581
Parrillas;-5.063858;40.06106
Pelahustán;-4.596936;40.17627
Pepino;-4.802787;40.03209
Polán;-4.1682;39.78912
Portillo de Toledo;-4.229168;40.0639
Puebla de Almoradiel (La);-3.118667;39.59846
Puebla de Montalbán (La);-4.358903;39.8645
Pueblanueva (La);-4.679905;39.91259
Puente del Arzobispo (El);-5.172055;39.80316
Puerto de San Vicente;-5.114378;39.52443
Pulgar;-4.152859;39.69444
Quero;-3.24591;39.50893
Quintanar de la Orden;-3.042736;39.59079
Quismondo;-4.324175;40.10527
Real de San Vicente (El);-4.690419;40.13696
Recas;-3.992467;40.05353
Retamoso de la Jara;-4.755482;39.74334
Rielves;-4.192946;39.96081
Robledo del Mazo;-4.90525;39.60931
Romeral (El);-3.431007;39.70677
San Bartolomé de las Abiertas;-4.717926;39.83086
San Martín de Montalbán;-4.389698;39.70229
San Martín de Pusa;-4.632938;39.7843
San Pablo de los Montes;-4.331608;39.53926
San Román de los Montes;-4.7318;40.0689
Santa Ana de Pusa;-4.715439;39.76367
Santa Cruz de la Zarza;-3.185218;39.98323
Santa Cruz del Retamar;-4.241545;40.11898
Santa Olalla;-4.428266;40.02426
Santo Domingo-Caudilla;-4.326;40.012
Sartajada;-4.791722;40.21156
Segurilla;-4.864883;40.0226
Seseña;-3.697418;40.10443
Sevilleja de la Jara;-4.962416;39.57607
Sonseca;-3.973744;39.67621
Sotillo de las Palomas;-4.82735;40.10486
Talavera de la Reina;-4.834432;39.9598
Tembleque;-3.503289;39.69833
Toboso (El);-2.99514;39.51261
Toledo;-4.024476;39.85678
Torralba de Oropesa;-5.15255;39.9325
Torre de Esteban Hambrán (La);-4.217501;40.16903
Torrecilla de la Jara;-4.771836;39.70379
Torrico;-5.227055;39.83018
Torrijos;-4.284419;39.98128
Totanés;-4.226097;39.71007
Turleque;-3.61375;39.60171
Ugena;-3.876736;40.15582
Urda;-3.716074;39.41178
Valdeverdeja;-5.246643;39.79899
Valmojado;-4.0909;40.20454
Velada;-4.979115;39.98071
Ventas con Peña Aguilera (Las);-4.230424;39.61103
Ventas de Retamosa (Las);-4.113943;40.15533
Ventas de San Julián (Las);-5.294204;40.00876
Villa de Don Fadrique (La);-3.2179;39.61808
Villacañas;-3.331701;39.62555
Villafranca de los Caballeros;-3.359463;39.42597
Villaluenga de la Sagra;-3.911721;40.02728
Villamiel de Toledo;-4.126972;39.98216
Villaminaya;-3.871097;39.71175
Villamuelas;-3.732577;39.81754
Villanueva de Alcardete;-3.012378;39.6734
Villanueva de Bogas;-3.657612;39.7242
Villarejo de Montalbán;-4.57295;39.76913
Villarrubia de Santiago;-3.368908;39.98702
Villaseca de la Sagra;-3.882071;39.96093
Villasequilla;-3.73029;39.87814
Villatobas;-3.32405;39.90173
Viso de San Juan (El);-3.920716;40.14274
Yébenes (Los);-3.870618;39.58142
Yeles;-3.805358;40.12237
Yepes;-3.622163;39.90262
Yuncler;-3.903411;40.04062
Yunclillos;-3.990554;40.02176
Yuncos;-3.875736;40.0842
Adanero;-4.606659;40.94591
Adrada (La);-4.634857;40.29935
Albornos;-4.881355;40.83842
Aldeanueva de Santa Cruz;-5.419435;40.38176
Aldeaseca;-4.817433;41.04952
Aldehuela (La);-4.763939;40.79458
Amavida;-5.066842;40.57338
Arenal (El);-5.087197;40.26487
Arenas de San Pedro;-5.091141;40.20872
Arevalillo;-5.370576;40.58731
Arévalo;-4.721681;41.06443
Aveinte;-4.837343;40.78237
Avellaneda;-5.388019;40.38853
Ávila;-4.700323;40.65642
Barco de Ávila (El);-5.523521;40.35711
Barraco (El);-4.638284;40.47881
Barromán;-4.931392;41.06509
Becedas;-5.634871;40.40503
Becedillas;-5.324924;40.53734
Bercial de Zapardiel;-4.969301;41.04642
Berlanas (Las);-4.760686;40.80299
Bernuy-Zapardiel;-4.943945;40.97598
Berrocalejo de Aragona;-4.594394;40.69409
Blascomillán;-5.088691;40.80138
Blasconuño de Matacabras;-4.990178;41.1234
Blascosancho;-4.635879;40.87781
Bohodón (El);-4.730068;40.91633
Bohoyo;-5.441185;40.31496
Bonilla de la Sierra;-5.264956;40.53089
Brabos;-4.937897;40.77847
Bularros;-4.865047;40.72449
Burgohondo;-4.786215;40.41368
Cabezas de Alambre;-4.842389;40.9404
Cabezas del Pozo;-4.955734;41.00153
Cabezas del Villar;-5.209755;40.71527
Cabizuela;-4.800335;40.90104
Canales;-4.900349;41.00328
Candeleda;-5.239784;40.15509
Cantiveros;-4.954445;40.9527
Cardeñosa;-4.745263;40.74177
Carrera (La);-5.554624;40.34768
Casas del Puerto;-5.198162;40.52906
Casasola;-4.826726;40.66874
Casavieja;-4.766778;40.28105
Casillas;-4.57237;40.32428
Castellanos de Zapardiel;-4.909803;41.08524
Cebreros;-4.464714;40.45507
Cepeda la Mora;-5.048178;40.45761
Chamartín;-4.958119;40.70156
Cillán;-4.978228;40.70498
Cisla;-5.012189;40.96485
Colilla (La);-4.766521;40.6473
Collado de Contreras;-4.927863;40.88665
Collado del Mirón;-5.353886;40.5528
Constanzana;-4.874399;40.93854
Crespos;-4.969728;40.87341
Cuevas del Valle;-5.010546;40.29244
Diego del Carpio;-5.340833;40.6625
Donjimeno;-4.845067;40.95966
Donvidas;-4.807941;41.08922
Espinosa de los Caballeros;-4.650817;41.00935
Flores de Ávila;-5.078152;40.93462
Fontiveros;-4.967885;40.9306
Fresnedilla;-4.621687;40.23157
Fresno (El);-4.757426;40.61371
Fuente el Saúz;-4.910458;40.97907
Fuentes de Año;-4.897614;41.01748
Gallegos de Altamiros;-4.899144;40.70929
Gallegos de Sobrinos;-5.111902;40.71639
Garganta del Villar;-5.105528;40.45007
Gavilanes;-4.851113;40.27752
Gemuño;-4.782099;40.59291
Gil García;-5.593304;40.29817
Gilbuena;-5.605305;40.41522
Gimialcón;-5.122354;40.87731
Gotarrendura;-4.739214;40.82674
Grandes y San Martín;-4.957851;40.75497
Guisando;-5.139702;40.22166
Gutierre-Muñoz;-4.638578;40.98325
Hernansancho;-4.729424;40.85752
Herradón de Pinares;-4.531389;40.57639
Herreros de Suso;-5.038302;40.80199
Higuera de las Dueñas;-4.601235;40.23775
Hija de Dios (La);-4.965749;40.53144
Horcajada (La);-5.466582;40.43745
Horcajo de las Torres;-5.090805;41.0651
Hornillo (El);-5.104175;40.24966
Hoyo de Pinares (El);-4.422359;40.50175
Hoyocasero;-4.975904;40.39886
Hoyorredondo;-5.409976;40.46219
Hoyos de Miguel Muñoz;-5.06712;40.39286
Hoyos del Collado;-5.201206;40.35938
Hoyos del Espino;-5.173525;40.35726
Hurtumpascual;-5.112507;40.69209
Junciana;-5.557674;40.41014
Langa;-4.859519;41.00771
Lanzahíta;-4.937142;40.20398
Llanos de Tormes (Los);-5.500204;40.32849
Losar del Barco (El);-5.539316;40.39238
Madrigal de las Altas Torres;-4.998767;41.08944
Maello;-4.5088;40.81118
Malpartida de Corneja;-5.351212;40.52113
Mamblas;-5.011209;41.01953
Mancera de Arriba;-5.147208;40.79102
Manjabálago;-5.076167;40.6643
Marlín;-4.829782;40.71137
Martiherrero;-4.781778;40.67412
Martínez;-5.348361;40.63086
Mediana de Voltoya;-4.563919;40.7007
Medinilla;-5.617625;40.43935
Mengamuñoz;-5.005374;40.50863
Mesegar de Corneja;-5.301532;40.50275
Mijares;-4.836677;40.29747
Mingorría;-4.665422;40.75072
Mirón (El);-5.405205;40.53179
Mironcillo;-4.825576;40.55497
Mirueña de los Infanzones;-5.090713;40.73749
Mombeltrán;-5.01777;40.25992
Monsalupe;-4.781026;40.76863
Moraleja de Matacabras;-4.957326;41.10721
Muñana;-5.014978;40.59051
Muñico;-5.026659;40.70657
Muñogalindo;-4.900547;40.6028
Muñogrande;-4.922052;40.82127
Muñomer del Peco;-4.880385;40.85851
Muñopepe;-4.818228;40.63546
Muñosancho;-5.035893;40.92184
Muñotello;-5.040777;40.54302
Narrillos del Álamo;-5.466862;40.56697
Narrillos del Rebollar;-4.964759;40.66433
Narros de Saldueña;-4.869534;40.87524
Narros del Castillo;-5.059597;40.85886
Narros del Puerto;-4.991971;40.54162
Nava de Arévalo;-4.775988;40.97843
Nava del Barco;-5.540213;40.29252
Navacepedilla de Corneja;-5.184513;40.48594
Navadijos;-5.08356;40.42566
Navaescurial;-5.277838;40.47199
Navahondilla;-4.495955;40.32642
Navalacruz;-4.932515;40.44016
Navalmoral;-4.7686;40.45965
Navalonguilla;-5.501873;40.27827
Navalosa;-4.931455;40.40134
Navalperal de Pinares;-4.410842;40.59454
Navalperal de Tormes;-5.300556;40.35288
Navaluenga;-4.707685;40.41096
Navaquesera;-4.908706;40.42503
Navarredonda de Gredos;-5.13352;40.36239
Navarredondilla;-4.821207;40.45349
Navarrevisca;-4.89544;40.36426
Navas del Marqués (Las);-4.326336;40.60316
Navatalgordo;-4.872152;40.41558
Navatejares;-5.530873;40.33571
Neila de San Miguel;-5.651734;40.42363
Niharra;-4.839691;40.5894
Ojos-Albos;-4.51648;40.7065
Orbita;-4.647501;40.99851
Oso (El);-4.770429;40.84169
Padiernos;-4.845123;40.6211
Pajares de Adaja;-4.64045;40.92365
Palacios de Goda;-4.783861;41.1171
Papatrigo;-4.834677;40.86782
Parral (El);-4.990441;40.7973
Pascualcobo;-5.276952;40.65711
Pedro-Rodríguez;-4.784845;40.93684
Pedro Bernardo;-4.914765;40.24287
Peguerinos;-4.232728;40.62729
Peñalba de Ávila;-4.747359;40.77176
Piedrahíta;-5.328194;40.46339
Piedralaves;-4.69809;40.31736
Poveda;-5.079698;40.5669
Poyales del Hoyo;-5.166279;40.17289
Pozanco;-4.66711;40.8014
Pradosegar;-5.071213;40.55083
Puerto Castilla;-5.629994;40.28954
Rasueros;-5.074331;41.0232
Riocabado;-4.803108;40.8301
Riofrío;-4.777152;40.54721
Rivilla de Barajas;-4.987929;40.9013
Salobral;-4.811044;40.61165
Salvadiós;-5.096365;40.877
San Bartolomé de Béjar;-5.662875;40.40808
San Bartolomé de Corneja;-5.385234;40.49294
San Bartolomé de Pinares;-4.539612;40.54251
San Esteban de los Patos;-4.624889;40.74583
San Esteban de Zapardiel;-4.900951;41.093
San Esteban del Valle;-4.980085;40.27536
San García de Ingelmos;-5.116322;40.76964
San Juan de Gredos;-5.237109;40.36386
San Juan de la Encinilla;-4.838498;40.82997
San Juan de la Nava;-4.682141;40.47903
San Juan del Molinillo;-4.818235;40.45938
San Juan del Olmo;-5.049766;40.6527
San Lorenzo de Tormes;-5.48815;40.37025
San Martín de la Vega del Alberche;-5.156746;40.43062
San Martín del Pimpollar;-5.055604;40.36848
San Miguel de Corneja;-5.287448;40.4868
San Miguel de Serrezuela;-5.287457;40.67038
San Pascual;-4.756086;40.88227
San Pedro del Arroyo;-4.870896;40.80069
San Vicente de Arévalo;-4.799979;40.9677
Sanchidrián;-4.581257;40.89338
Sanchorreja;-4.915372;40.66479
Santa Cruz de Pinares;-4.57963;40.54183
Santa Cruz del Valle;-5.003672;40.25078
Santa María de los Caballeros;-5.451696;40.38877
Santa María del Arroyo;-4.922258;40.59944
Santa María del Berrocal;-5.406222;40.50954
Santa María del Cubillo;-4.472222;40.7425
Santa María del Tiétar;-4.555526;40.30389
Santiago del Collado;-5.356558;40.43356
Santiago del Tormes;-5.366667;40.36666
Santo Domingo de las Posadas;-4.633421;40.81218
Santo Tomé de Zabarcos;-4.910215;40.78664
Serrada (La);-4.792297;40.63132
Serranillos;-4.911497;40.33594
Sigeres;-4.932576;40.79939
Sinlabajos;-4.831933;41.07727
Solana de Ávila;-5.615701;40.31465
Solana de Rioalmar;-5.010678;40.73724
Solosancho;-4.906135;40.55363
Sotalbo;-4.849229;40.54151
Sotillo de la Adrada;-4.585647;40.29404
Tiemblo (El);-4.503831;40.41628
Tiñosillos;-4.72748;40.93408
Tolbaños;-4.581374;40.75098
Tormellas;-5.511548;40.30432
Tornadizos de Ávila;-4.615232;40.62614
Torre (La);-4.965192;40.58926
Tórtoles;-5.261655;40.5609
Umbrías;-5.578032;40.31298
Vadillo de la Sierra;-5.122006;40.60506
Valdecasa;-5.012668;40.65955
Vega de Santa María;-4.64183;40.83594
Velayos;-4.622241;40.84094
Villaflor;-4.874116;40.7584
Villafranca de la Sierra;-5.230729;40.49773
Villanueva de Ávila;-4.821985;40.37959
Villanueva de Gómez;-4.715201;40.88379
Villanueva del Aceral;-4.852352;41.04132
Villanueva del Campillo;-5.179864;40.57825
Villar de Corneja;-5.43251;40.47478
Villarejo del Valle;-4.997665;40.28594
Villatoro;-5.111281;40.55616
Viñegra de Moraña;-4.922153;40.84931
Vita;-5.005141;40.81179
Zapardiel de la Cañada;-5.340081;40.60593
Zapardiel de la Ribera;-5.328642;40.35575
Abajas;-3.580227;42.62347
Adrada de Haza;-3.821794;41.59426
Aguas Cándidas;-3.501816;42.71609
Aguilar de Bureba;-3.328738;42.59014
Albillos;-3.790607;42.27642
Alcocero de Mola;-3.357422;42.47314
Alfoz de Bricia;-3.879167;42.89667
Alfoz de Quintanadueñas;-3.734942;42.38503
Alfoz de Santa Gadea;-3.950556;42.95555
Altable;-3.077159;42.60335
Altos (Los);-3.631667;42.80861
Ameyugo;-3.061546;42.65606
Anguix;-3.931955;41.75338
Aranda de Duero;-3.686569;41.67171
Arandilla;-3.428753;41.73776
Arauzo de Miel;-3.38779;41.86012
Arauzo de Salce;-3.412258;41.81974
Arauzo de Torre;-3.422723;41.79853
Arcos;-3.755465;42.26453
Arenillas de Riopisuerga;-4.233235;42.35673
Arija;-3.944695;42.99424
Arlanzón;-3.458243;42.3228
Arraya de Oca;-3.397841;42.41536
Atapuerca;-3.507772;42.37701
Ausines (Los);-3.597602;42.22558
Avellanosa de Muñó;-3.824701;41.98373
Bahabón de Esgueva;-3.729234;41.86199
Balbases (Los);-4.062593;42.215
Baños de Valdearados;-3.556313;41.76987
Bañuelos de Bureba;-3.280796;42.50111
Barbadillo de Herreros;-3.150055;42.21489
Barbadillo del Mercado;-3.358344;42.03931
Barbadillo del Pez;-3.228537;42.11964
Barrio de Muñó;-4.007208;42.17502
Barrios de Bureba (Los);-3.391559;42.64565
Barrios de Colina;-3.459788;42.39611
Basconcillos del Tozo;-3.989552;42.70267
Bascuñana;-3.082017;42.42544
Belbimbre;-4.012369;42.16871
Belorado;-3.189796;42.42041
Berberana;-3.060073;42.91988
Berlangas de Roa;-3.87417;41.6894
Berzosa de Bureba;-3.266128;42.62693
Bozoó;-3.08537;42.72657
Brazacorta;-3.367153;41.71716
Briviesca;-3.323369;42.55029
Bugedo;-3.017947;42.64932
Buniel;-3.823738;42.30971
Burgos;-3.699731;42.34087
Busto de Bureba;-3.264715;42.65941
Cabañes de Esgueva;-3.785393;41.8313
Cabezón de la Sierra;-3.242159;41.93455
Caleruega;-3.486718;41.82503
Campillo de Aranda;-3.730296;41.61026
Campolara;-3.427225;42.11951
Canicosa de la Sierra;-3.042048;41.93606
Cantabrana;-3.4672;42.73465
Carazo;-3.353925;41.96952
Carcedo de Bureba;-3.498399;42.5783
Carcedo de Burgos;-3.623026;42.2861
Cardeñadijo;-3.665262;42.2997
Cardeñajimeno;-3.621846;42.33102
Cardeñuela Riopico;-3.55778;42.35997
Carrias;-3.283208;42.4817
Cascajares de Bureba;-3.237395;42.67904
Cascajares de la Sierra;-3.39957;42.06187
Castellanos de Castro;-4.03372;42.32857
Castil de Peones;-3.38459;42.48307
Castildelgado;-3.084511;42.43724
Castrillo de la Reina;-3.237118;41.98731
Castrillo de la Vega;-3.781646;41.65073
Castrillo de Riopisuerga;-4.252292;42.51493
Castrillo del Val;-3.584872;42.31421
Castrillo Matajudíos;-4.173882;42.31054
Castrojeriz;-4.138836;42.28828
Cavia;-3.845257;42.28385
Cayuela;-3.819528;42.27256
Cebrecos;-3.596634;41.9832
Celada del Camino;-3.933845;42.26265
Cerezo de Río Tirón;-3.135633;42.49125
Cerratón de Juarros;-3.373947;42.42218
Ciadoncha;-3.9348;42.1606
Cillaperlata;-3.358483;42.78268
Cilleruelo de Abajo;-3.795598;41.88422
Cilleruelo de Arriba;-3.660519;41.90474
Ciruelos de Cervera;-3.530057;41.90557
Cogollos;-3.699386;42.20072
Condado de Treviño;-2.74691;42.7349
Contreras;-3.410147;42.02149
Coruña del Conde;-3.391761;41.76587
Covarrubias;-3.520237;42.05919
Cubillo del Campo;-3.610348;42.16857
Cubo de Bureba;-3.206735;42.64042
Cueva de Roa (La);-3.939688;41.66653
Cuevas de San Clemente;-3.568581;42.12992
Encío;-3.084554;42.66777
Espinosa de Cervera;-3.468393;41.89632
Espinosa de los Monteros;-3.552301;43.07687
Espinosa del Camino;-3.281149;42.40644
Estépar;-3.89849;42.2767
Fontioso;-3.739049;41.94261
Frandovínez;-3.838241;42.30937
Fresneda de la Sierra Tirón;-3.13507;42.31503
Fresneña;-3.134803;42.41425
Fresnillo de las Dueñas;-3.644559;41.64692
Fresno de Río Tirón;-3.17496;42.4602
Fresno de Rodilla;-3.485178;42.42011
Frías;-3.294353;42.76148
Fuentebureba;-3.234902;42.63403
Fuentecén;-3.869621;41.62859
Fuentelcésped;-3.640737;41.59122
Fuentelisendo;-3.901975;41.6224
Fuentemolinos;-3.849833;41.60551
Fuentenebro;-3.75369;41.52533
Fuentespina;-3.686191;41.63168
Galbarros;-3.437926;42.5279
Gallega (La);-3.26404;41.89865
Grijalba;-4.118997;42.42995
Grisaleña;-3.26404;42.59092
Gumiel de Izán;-3.688242;41.7734
Gumiel de Mercado;-3.802108;41.75608
Hacinas;-3.28705;41.9852
Haza;-3.829452;41.62142
Hontanas;-4.045938;42.31303
Hontangas;-3.796304;41.58269
Hontoria de la Cantera;-3.643586;42.18913
Hontoria de Valdearados;-3.520228;41.74445
Hontoria del Pinar;-3.162302;41.8486
Hormazas (Las);-3.896111;42.515
Hornillos del Camino;-3.925357;42.33831
Horra (La);-3.875266;41.74088
Hortigüela;-3.425503;42.0681
Hoyales de Roa;-3.862995;41.65891
Huérmeces;-3.77164;42.52169
Huerta de Arriba;-3.082139;42.11634
Huerta de Rey;-3.349127;41.83988
Humada;-4.083444;42.66822
Hurones;-3.613922;42.40615
Ibeas de Juarros;-3.535495;42.33124
Ibrillos;-3.0831;42.45407
Iglesiarrubia;-3.846759;41.97432
Iglesias;-3.990041;42.29795
Isar;-3.930288;42.36185
Itero del Castillo;-4.244414;42.28941
Jaramillo de la Fuente;-3.312734;42.11487
Jaramillo Quemado;-3.360913;42.08483
Junta de Traslaloma;-3.389445;43.03695
Junta de Villalba de Losa;-3.087131;42.93537
Jurisdicción de Lara;-3.449722;42.13472
Jurisdicción de San Zadornil;-3.157743;42.84143
Lerma;-3.75596;42.02583
Llano de Bureba;-3.459093;42.62436
Madrigal del Monte;-3.675512;42.14449
Madrigalejo del Monte;-3.725459;42.12458
Mahamud;-3.94084;42.11988
Mambrilla de Castrejón;-3.984727;41.66708
Mambrillas de Lara;-3.461727;42.09437
Mamolar;-3.361871;41.92689
Manciles;-3.944278;42.4558
Mazuela;-3.918213;42.20672
Mecerreyes;-3.573741;42.0954
Medina de Pomar;-3.487223;42.92837
Melgar de Fernamental;-4.244519;42.40352
Merindad de Cuesta-Urria;-3.391667;42.9
Merindad de Montija;-3.43402;43.09207
Merindad de Río Ubierna;-3.65;42.61666
Merindad de Sotoscueva;-3.642048;43.05877
Merindad de Valdeporres;-3.768611;43.02056
Merindad de Valdivielso;-3.536;42.82
Milagros;-3.699167;41.57555
Miranda de Ebro;-2.947593;42.68734
Miraveche;-3.19961;42.67471
Modúbar de la Emparedada;-3.659911;42.26012
Monasterio de la Sierra;-3.193589;42.05131
Monasterio de Rodilla;-3.468888;42.45771
Moncalvillo;-3.199341;41.9552
Monterrubio de la Demanda;-3.112634;42.1481
Montorio;-3.776581;42.58467
Moradillo de Roa;-3.791871;41.55196
Nava de Roa;-3.965231;41.61383
Navas de Bureba;-3.32677;42.68237
Nebreda;-3.63392;41.96859
Neila;-2.997184;42.05984
Olmedillo de Roa;-3.934045;41.78319
Olmillos de Muñó;-3.940343;42.20261
Oña;-3.414072;42.73478
Oquillas;-3.703652;41.8317
Orbaneja Riopico;-3.583582;42.36023
Padilla de Abajo;-4.176731;42.40781
Padilla de Arriba;-4.194777;42.43821
Padrones de Bureba;-3.532114;42.7049
Palacios de la Sierra;-3.126263;41.96359
Palacios de Riopisuerga;-4.256989;42.34376
Palazuelos de la Sierra;-3.459925;42.21181
Palazuelos de Muñó;-3.988374;42.19647
Pampliega;-3.987587;42.20591
Pancorbo;-3.110586;42.63524
Pardilla;-3.710233;41.55063
Partido de la Sierra en Tobalina;-3.233333;42.71667
Pedrosa de Duero;-3.987098;41.71184
Pedrosa de Río Úrbel;-3.821324;42.40971
Pedrosa del Páramo;-3.972769;42.44224
Pedrosa del Príncipe;-4.198915;42.24924
Peñaranda de Duero;-3.480297;41.68876
Peral de Arlanza;-4.077512;42.07603
Piérnigas;-3.412804;42.59008
Pineda de la Sierra;-3.29737;42.21596
Pineda Trasmonte;-3.695628;41.90881
Pinilla de los Barruecos;-3.305166;41.91891
